"PNuid_NLidu","Name_en","Nom_fr","Province","Latitude","Longitude"
1,"Halifax","Halifax","NS",44.648757,-63.601876
2,"Dartmouth","Dartmouth","NS",44.672142,-63.562168
3,"Charlottetown","Charlottetown","PE",46.242961,-63.126519
4,"Sydney","Sydney","NS",46.126469,-60.176689
5,"Glace Bay","Glace Bay","NS",46.192901,-59.962389
6,"Bedford","Bedford","NS",44.733924,-63.653377
7,"Summerside","Summerside","PE",46.393458,-63.789341
8,"Amherst","Amherst","NS",45.830781,-64.209807
9,"New Glasgow","New Glasgow","NS",45.587794,-62.642169
10,"Eastern Passage","Eastern Passage","NS",44.615441,-63.480148
11,"Bridgewater","Bridgewater","NS",44.375475,-64.522476
12,"Yarmouth","Yarmouth","NS",43.83567,-66.120048
14,"New Waterford","New Waterford","NS",46.247297,-60.08167
15,"North Sydney","North Sydney","NS",46.204423,-60.260953
16,"Bible Hill","Bible Hill","NS",45.377819,-63.251466
17,"Kentville","Kentville","NS",45.086887,-64.489193
18,"Lower Sackville","Lower Sackville","NS",44.76279,-63.667137
19,"Fall River","Fall River","NS",44.821059,-63.611263
20,"Stellarton","Stellarton","NS",45.556695,-62.663698
21,"Antigonish","Antigonish","NS",45.623888,-61.994489
22,"Greenwood","Greenwood","NS",44.968348,-64.932953
23,"New Minas","New Minas","NS",45.067351,-64.457023
24,"Springhill","Springhill","NS",45.651053,-64.056599
25,"Westville","Westville","NS",45.55761,-62.711478
26,"Pictou","Pictou","NS",45.680317,-62.705484
27,"Windsor","Windsor","NS",44.989112,-64.137718
28,"Port Hawkesbury","Port Hawkesbury","NS",45.618477,-61.360132
29,"Wolfville","Wolfville","NS",45.087032,-64.355902
31,"Liverpool","Liverpool","NS",44.036255,-64.718972
32,"Sydney River","Sydney River","NS",46.097443,-60.226466
33,"Kingston","Kingston","NS",44.98767,-64.952343
34,"Trenton","Trenton","NS",45.61673,-62.632673
35,"Shubenacadie","Shubenacadie","NS",45.087367,-63.406758
36,"Enfield","Enfield","NS",44.951539,-63.532686
37,"Elmsdale","Elmsdale","NS",44.967014,-63.504486
38,"Dominion","Dominion","NS",46.211922,-60.023562
39,"Westmount","Westmount","NS",46.137947,-60.218552
40,"Berwick","Berwick","NS",45.045524,-64.734149
41,"Digby","Digby","NS",44.619461,-65.764455
42,"Shelburne","Shelburne","NS",43.762137,-65.316761
43,"Bras d'Or","Bras d'Or","NS",46.247916,-60.293895
44,"Reserve Mines","Reserve Mines","NS",46.183228,-60.012083
45,"Montague","Montague","PE",46.166741,-62.650928
46,"Prospect","Prospect","NS",44.4703,-63.7882
47,"Middleton","Middleton","NS",44.943143,-65.067497
48,"Inverness","Inverness","NS",46.229332,-61.304065
49,"Mount Uniacke","Mount Uniacke","NS",44.887299,-63.823514
50,"Lantz","Lantz","NS",44.988791,-63.480257
51,"Chester","Chester","NS",44.544706,-64.24043
52,"Parrsboro","Parrsboro","NS",45.403413,-64.325671
53,"Hilden","Hilden","NS",45.308172,-63.29061
54,"Stewiacke","Stewiacke","NS",45.137957,-63.348574
55,"Kensington","Kensington","PE",46.43509,-63.636769
56,"Oxford","Oxford","NS",45.734804,-63.867064
57,"Souris","Souris","PE",46.354618,-62.248536
58,"Hantsport","Hantsport","NS",45.067624,-64.179662
59,"Alberton","Alberton","PE",46.811267,-64.063926
60,"Brooklyn","Brooklyn","NS",44.055204,-64.693051
61,"Bridgetown","Bridgetown","NS",44.840736,-65.286153
62,"Milton","Milton","NS",44.062363,-64.750025
63,"Chéticamp","Chéticamp","NS",46.636,-61.008
64,"Three Mile Plains","Three Mile Plains","NS",44.964269,-64.096958
65,"Herring Cove","Herring Cove","NS",44.56701,-63.560943
66,"Falmouth","Falmouth","NS",44.995753,-64.163034
67,"Waverley","Waverley","NS",44.783842,-63.601193
68,"Louisbourg","Louisbourg","NS",45.920011,-59.974802
69,"O'Leary","O'Leary","PE",46.707616,-64.223198
70,"Tignish","Tignish","PE",46.950001,-64.033333
71,"Sheet Harbour","Sheet Harbour","NS",44.921013,-62.533466
72,"Canning","Canning","NS",45.158692,-64.429297
73,"Miscouche","Miscouche","PE",46.430963,-63.859378
74,"Georgetown","Georgetown","PE",46.184812,-62.534031
75,"Lockeport","Lockeport","NS",43.694826,-65.111716
76,"St. Peter's","St. Peter's","NS",45.657752,-60.875715
77,"River Hebert","River Hebert","NS",45.692315,-64.379065
78,"Lawrencetown","Lawrencetown","NS",44.884645,-65.162078
79,"North Rustico","North Rustico","PE",46.45925,-63.309202
80,"Annapolis Royal","Annapolis Royal","NS",44.744892,-65.51122
81,"Arichat","Arichat","NS",45.510972,-61.018048
82,"Mulgrave","Mulgrave","NS",45.612105,-61.39358
83,"Baddeck","Baddeck","NS",46.101371,-60.75365
84,"Wood Islands","Wood Islands","PE",45.965852,-62.75645
85,"Clark's Harbour","Clark's Harbour","NS",43.446273,-65.635724
86,"Musquodoboit Harbour","Musquodoboit Harbour","NS",44.787813,-63.146767
87,"South Harbour","South Harbour","NS",46.869108,-60.463842
88,"Meteghan","Meteghan","NS",44.185635,-66.161248
89,"Mahone Bay","Mahone Bay","NS",44.448587,-64.380442
90,"Canso","Canso","NS",45.33562,-60.995228
91,"Murray Harbour","Murray Harbour","PE",46.003505,-62.521319
92,"Morell","Morell","PE",46.414862,-62.704972
93,"Mount Stewart","Mount Stewart","PE",46.369157,-62.868262
94,"Red Bay","Red Bay","NL",51.74463,-56.426012
95,"Miminegash","Miminegash","PE",46.880718,-64.22564
96,"Gaspereaux","Gaspereaux","PE",46.105535,-62.476079
97,"St-Raphaël","St-Raphaël","PE",46.425262,-64.017046
98,"Louisdale","Louisdale","NS",45.606494,-61.063595
99,"Havre Boucher","Havre Boucher","NS",45.68452,-61.534711
100,"Clyde River","Clyde River","NS",43.630886,-65.477321
101,"Walton","Walton","NS",45.229556,-64.001939
102,"Merigomish","Merigomish","NS",45.63271,-62.433109
103,"Capstick","Capstick","NS",47.003161,-60.515017
104,"Ingonish Centre","Ingonish Centre","NS",46.680493,-60.408404
105,"Port Morien","Port Morien","NS",46.133524,-59.873956
106,"L'Ardoise","L'Ardoise","NS",45.614505,-60.766787
107,"Margaree Forks","Margaree Forks","NS",46.331078,-61.090195
108,"Elmira","Elmira","PE",46.441238,-62.064408
109,"Grande Anse","Grande Anse","NS",45.626055,-61.069144
110,"Whycocomagh","Whycocomagh","NS",45.974325,-61.12718
112,"Mabou","Mabou","NS",46.072911,-61.392098
113,"Advocate Harbour","Advocate Harbour","NS",45.336814,-64.783246
114,"Sandy Point","Sandy Point","NS",43.710782,-65.319271
115,"Port Hood","Port Hood","NS",46.017664,-61.529844
116,"Askilton","Askilton","NS",45.69046,-61.312246
117,"Judique","Judique","NS",45.876011,-61.490657
118,"Tangier","Tangier","NS",44.801573,-62.698985
119,"Mushaboom","Mushaboom","NS",44.850738,-62.533687
120,"Moser River","Moser River","NS",44.974953,-62.254173
121,"Londonderry","Londonderry","NS",45.474488,-63.602802
122,"Hopewell","Hopewell","NS",45.482811,-62.699494
123,"New Germany","New Germany","NS",44.538594,-64.711955
124,"Jordan Falls","Jordan Falls","NS",43.815532,-65.233595
125,"Ingonish","Ingonish","NS",46.692015,-60.373185
126,"Shag Harbour","Shag Harbour","NS",43.498533,-65.702969
127,"Lower Woods Harbour","Lower Woods Harbour","NS",43.51616,-65.73474
128,"West Wentworth","West Wentworth","NS",45.685893,-63.603188
129,"Upper Musquodoboit","Upper Musquodoboit","NS",45.134083,-62.946919
130,"Brighton","Brighton","NS",44.553008,-65.853955
131,"Guysborough","Guysborough","NS",45.391732,-61.503125
132,"West Chezzetcook","West Chezzetcook","NS",44.716185,-63.266519
133,"Middle Musquodoboit","Middle Musquodoboit","NS",45.043763,-63.149622
134,"Wedgeport","Wedgeport","NS",43.739225,-65.979654
135,"Brooklyn","Brooklyn","NS",45.006962,-64.013123
136,"Deep Brook","Deep Brook","NS",44.636614,-65.654258
137,"Plymouth","Plymouth","NS",43.801067,-66.015188
138,"Martins River","Martins River","NS",44.486178,-64.335413
139,"Saulnierville","Saulnierville","NS",44.264199,-66.129985
140,"East Kemptville","East Kemptville","NS",44.087032,-65.769705
141,"Economy","Economy","NS",45.384636,-63.916967
142,"Great Village","Great Village","NS",45.411669,-63.596237
143,"Noel","Noel","NS",45.295738,-63.747985
144,"Middlewood","Middlewood","NS",44.229763,-64.573857
145,"Debert","Debert","NS",45.437936,-63.459815
146,"Pleasant Bay","Pleasant Bay","NS",46.827546,-60.801122
147,"Northport","Northport","NS",45.932583,-63.867604
148,"Tatamagouche","Tatamagouche","NS",45.709407,-63.294496
149,"Pugwash","Pugwash","NS",45.850485,-63.662234
150,"Kennetcook","Kennetcook","NS",45.176299,-63.721843
151,"Wallace","Wallace","NS",45.812571,-63.472779
152,"Hacketts Cove","Hacketts Cove","NS",44.567392,-63.923574
153,"Sambro","Sambro","NS",44.474754,-63.603401
154,"Margaretsville","Margaretsville","NS",45.047082,-65.063417
155,"Greenfield","Greenfield","NS",44.272901,-64.841565
156,"River John","River John","NS",45.752335,-63.069545
157,"Weymouth","Weymouth","NS",44.41867,-66.001479
158,"Porters Lake","Porters Lake","NS",44.737171,-63.310043
159,"Lake Echo","Lake Echo","NS",44.735923,-63.392341
160,"Donkin","Donkin","NS",46.184763,-59.872709
161,"Port Hastings","Port Hastings","NS",45.649814,-61.404096
163,"Bay St. Lawrence","Bay St. Lawrence","NS",47.00368,-60.463965
164,"Neils Harbour","Neils Harbour","NS",46.81078,-60.324076
165,"Dingwall","Dingwall","NS",46.895625,-60.477412
166,"Cape North","Cape North","NS",46.887584,-60.50285
167,"New Haven","New Haven","NS",46.824102,-60.321006
168,"St. Margaret Village","St. Margaret Village","NS",46.989203,-60.47451
169,"Meat Cove","Meat Cove","NS",47.026462,-60.569817
170,"Ingonish Beach","Ingonish Beach","NS",46.63788,-60.402891
171,"Little River","Little River","NS",46.442915,-60.466548
172,"Ingonish Ferry","Ingonish Ferry","NS",46.627993,-60.392063
173,"Wreck Cove","Wreck Cove","NS",46.548991,-60.41078
174,"Birch Plain","Birch Plain","NS",46.512413,-60.4271
175,"French River","French River","NS",46.490839,-60.440366
176,"River Bennet","River Bennet","NS",46.33329,-60.535751
177,"Indian Brook","Indian Brook","NS",46.370384,-60.53198
178,"Tarbot","Tarbot","NS",46.336687,-60.595273
179,"Jersey Cove","Jersey Cove","NS",46.310863,-60.546862
180,"Big Bank","Big Bank","NS",46.212648,-60.498695
181,"St. Anns","St. Anns","NS",46.213049,-60.60635
182,"Middle River","Middle River","NS",46.154269,-60.924996
183,"Boularderie","Boularderie","NS",46.165876,-60.565113
184,"MacAulays Hill","MacAulays Hill","NS",46.143334,-60.679916
185,"Baddeck Bay","Baddeck Bay","NS",46.131959,-60.695559
186,"Englishtown","Englishtown","NS",46.27974,-60.54438
187,"New Campbellton","New Campbellton","NS",46.290562,-60.429246
188,"Grand Narrows","Grand Narrows","NS",45.95561,-60.790385
190,"Baddeck Bridge","Baddeck Bridge","NS",46.122689,-60.797676
191,"Big Bras d'Or","Big Bras d'Or","NS",46.271521,-60.425801
192,"Big Farm","Big Farm","NS",46.10378,-60.819263
193,"Little Narrows","Little Narrows","NS",45.990451,-60.981731
194,"McKinnons Harbour","McKinnons Harbour","NS",45.946525,-60.903303
195,"Jamesville","Jamesville","NS",45.946774,-60.849772
196,"Iona","Iona","NS",45.961555,-60.807418
197,"Nyanza","Nyanza","NS",46.092618,-60.889626
198,"Lower Washabuck","Lower Washabuck","NS",46.069437,-60.768153
199,"North River Bridge","North River Bridge","NS",46.303899,-60.629756
200,"Crescent Grove","Crescent Grove","NS",46.118167,-60.722679
201,"Forks Baddeck","Forks Baddeck","NS",46.17798,-60.767619
202,"Inlet Baddeck","Inlet Baddeck","NS",46.079234,-60.820008
203,"Estmere","Estmere","NS",45.932001,-60.980137
204,"Big Hill","Big Hill","NS",46.165542,-60.641454
205,"Ross Ferry","Ross Ferry","NS",46.143497,-60.581705
206,"Red River","Red River","NS",46.845341,-60.774409
207,"Portree","Portree","NS",46.401273,-60.965381
208,"Petit Étang","Petit Étang","NS",46.648375,-60.976089
209,"La Prairie","La Prairie","NS",46.638709,-60.970143
210,"Belle-Marche","Belle-Marche","NS",46.624918,-60.985756
211,"Plateau","Plateau","NS",46.592872,-61.00729
212,"Grand Étang","Grand Étang","NS",46.546247,-61.048773
213,"St. Joseph du Moine","St. Joseph du Moine","NS",46.532241,-61.060016
214,"Cap Le Moine","Cap Le Moine","NS",46.507905,-61.071794
215,"Margaree Harbour","Margaree Harbour","NS",46.448815,-61.096401
216,"Margaree","Margaree","NS",46.392817,-61.072397
217,"Inverside","Inverside","NS",46.238966,-61.27459
218,"North East Margaree","North East Margaree","NS",46.328767,-61.00232
219,"Margaree Centre","Margaree Centre","NS",46.344144,-61.003603
220,"Egypt Road","Egypt Road","NS",46.337958,-60.952532
221,"Emerald","Emerald","NS",46.322725,-61.044888
222,"South West Margaree","South West Margaree","NS",46.280908,-61.140594
223,"Upper Margaree","Upper Margaree","NS",46.218385,-61.133679
224,"Scotsville","Scotsville","NS",46.189027,-61.15406
225,"Belle Côte","Belle Côte","NS",46.435651,-61.118795
226,"Broad Cove Banks","Broad Cove Banks","NS",46.212961,-61.334486
227,"Harbourview","Harbourview","NS",45.985982,-61.524276
228,"Deepdale","Deepdale","NS",46.195079,-61.28344
229,"Soapstone Mine","Soapstone Mine","NS",45.985678,-61.183439
230,"Mabou Station","Mabou Station","NS",46.067564,-61.398941
231,"Mabou Harbour Mouth","Mabou Harbour Mouth","NS",46.092801,-61.462147
232,"Southwest Mabou","Southwest Mabou","NS",46.024784,-61.450134
233,"Dunmore","Dunmore","NS",46.007368,-61.51341
234,"Marble Hill","Marble Hill","NS",46.040338,-61.543828
235,"West Mabou","West Mabou","NS",46.076174,-61.469321
236,"Glenville","Glenville","NS",46.158133,-61.312527
237,"South Lake Ainslie","South Lake Ainslie","NS",46.03987,-61.119608
238,"Troy","Troy","NS",45.685141,-61.438278
239,"Big Marsh","Big Marsh","NS",45.894256,-61.205294
240,"Judique North","Judique North","NS",45.904113,-61.479589
241,"Judique South","Judique South","NS",45.853382,-61.48884
242,"Marble Mountain","Marble Mountain","NS",45.817557,-61.041308
243,"Iron Mines","Iron Mines","NS",45.938135,-61.148555
244,"West Bay","West Bay","NS",45.709204,-61.172274
245,"Orangedale","Orangedale","NS",45.901032,-61.096935
246,"Pleasant Hill","Pleasant Hill","NS",45.643872,-61.36509
247,"West Bay Road","West Bay Road","NS",45.730744,-61.254085
248,"Creignish","Creignish","NS",45.728256,-61.456548
249,"Long Point","Long Point","NS",45.806847,-61.482608
250,"Kingsville","Kingsville","NS",45.780455,-61.322598
251,"River Denys","River Denys","NS",45.829551,-61.178554
252,"Glendale","Glendale","NS",45.812598,-61.316937
253,"Blues Mills","Blues Mills","NS",45.925185,-61.195307
254,"Whiteside","Whiteside","NS",45.606207,-61.195454
255,"Cleveland","Cleveland","NS",45.667479,-61.233001
256,"Hureauville","Hureauville","NS",45.642424,-61.240049
257,"Evanston","Evanston","NS",45.622702,-61.219255
258,"River Bourgeois","River Bourgeois","NS",45.63842,-60.947341
259,"French Cove","French Cove","NS",45.698716,-60.831595
260,"Sampsonville","Sampsonville","NS",45.681828,-60.848905
261,"River Tillard","River Tillard","NS",45.651278,-60.91626
262,"Carters Cove","Carters Cove","NS",45.686852,-60.844638
263,"The Points West Bay","The Points West Bay","NS",45.754994,-60.978341
264,"St. Georges Channel","St. Georges Channel","NS",45.720639,-61.043901
266,"Janvrin Harbour","Janvrin Harbour","NS",45.530549,-61.179496
267,"Little Anse","Little Anse","NS",45.492682,-60.929623
268,"Poulamon","Poulamon","NS",45.581,-60.9895
269,"Boudreauville","Boudreauville","NS",45.509218,-60.963214
270,"Petit-de-Grat","Petit-de-Grat","NS",45.504832,-60.95484
271,"West Arichat","West Arichat","NS",45.514744,-61.081279
272,"Port Royal","Port Royal","NS",45.534,-61.0813
273,"Pondville","Pondville","NS",45.541113,-60.991101
274,"Poirierville","Poirierville","NS",45.578734,-60.926597
275,"D'Escousse","D'Escousse","NS",45.587258,-60.960698
276,"Little Harbour","Little Harbour","NS",45.586188,-60.737162
277,"Fourchu","Fourchu","NS",45.716611,-60.260506
278,"Grande Greve","Grande Greve","NS",45.631886,-60.843195
279,"Rockdale","Rockdale","NS",45.616625,-60.809742
280,"Grand River","Grand River","NS",45.645119,-60.661741
281,"Barra Head","Barra Head","NS",45.678664,-60.783694
282,"Red Islands","Red Islands","NS",45.779044,-60.74261
283,"Soldiers Cove","Soldiers Cove","NS",45.695632,-60.735595
284,"Lower L'Ardoise","Lower L'Ardoise","NS",45.601268,-60.74089
285,"Framboise","Framboise","NS",45.722892,-60.375502
286,"Alder Point","Alder Point","NS",46.294406,-60.281594
287,"East Bay","East Bay","NS",46.018764,-60.371183
288,"Irish Vale","Irish Vale","NS",45.849873,-60.647044
289,"Big Pond","Big Pond","NS",45.902919,-60.544142
290,"Rock Elm","Rock Elm","NS",45.930651,-60.334305
291,"Marion Bridge","Marion Bridge","NS",45.981104,-60.21177
292,"Howie Centre","Howie Centre","NS",46.070118,-60.277965
293,"Albert Bridge","Albert Bridge","NS",46.024767,-60.063078
294,"Catalone","Catalone","NS",46.009127,-59.945757
295,"Florence","Florence","NS",46.259388,-60.260866
296,"Gabarus","Gabarus","NS",45.838184,-60.140332
297,"Leitches Creek","Leitches Creek","NS",46.168937,-60.310854
298,"St. Andrews Channel","St. Andrews Channel","NS",45.93015,-60.515013
299,"Grand Mira South","Grand Mira South","NS",45.892058,-60.289277
300,"North Lake","North Lake","PE",46.46448,-62.066615
301,"Kingsboro","Kingsboro","PE",46.392344,-62.111268
302,"South Lake","South Lake","PE",46.422722,-62.049813
303,"Bayfield","Bayfield","PE",46.474072,-62.195214
304,"Bothwell","Bothwell","PE",46.40283,-62.0824
305,"Little Harbour","Little Harbour","PE",46.362157,-62.188211
306,"Souris Line Road","Souris Line Road","PE",46.396027,-62.249816
307,"Red Point","Red Point","PE",46.379828,-62.140559
308,"Chepstow","Chepstow","PE",46.353122,-62.214579
309,"Souris West","Souris West","PE",46.359233,-62.288147
310,"New Zealand","New Zealand","PE",46.397986,-62.309802
311,"Bay Fortune","Bay Fortune","PE",46.327297,-62.369205
312,"Rollo Bay","Rollo Bay","PE",46.359730947048,-62.338153414858
313,"Fortune Harbour","Fortune Harbour","PE",46.337378,-62.359919
314,"New Acadia","New Acadia","PE",46.399667,-62.396429
315,"Fortune Bridge","Fortune Bridge","PE",46.349798,-62.378864
316,"Bear River","Bear River","PE",46.39103,-62.354185
317,"Farmington","Farmington","PE",46.385999,-62.488852
318,"Annandale","Annandale","PE",46.260852,-62.423688
319,"Little Pond","Little Pond","PE",46.281078,-62.41063
320,"Bridgetown","Bridgetown","PE",46.305642,-62.527922
321,"Dundas","Dundas","PE",46.317705,-62.509759
322,"Upton","Upton","PE",46.336775,-62.539956
323,"St. Georges","St. Georges","PE",46.258649585963,-62.505296165227
324,"Strathcona","Strathcona","PE",46.323287,-62.554626
325,"Seal River","Seal River","PE",46.235164,-62.545934
326,"Cardigan","Cardigan","PE",46.236889,-62.623116
327,"Brudenell","Brudenell","PE",46.18619,-62.650109
328,"New Perth","New Perth","PE",46.211374,-62.703296
329,"Pooles Corner","Pooles Corner","PE",46.209627,-62.650308
330,"Lower Montague","Lower Montague","PE",46.166977,-62.571725
331,"Lorne Valley","Lorne Valley","PE",46.269002,-62.692705
332,"St. Peters","St. Peters","PE",46.41341,-62.578752
333,"Peakes","Peakes","PE",46.298043,-62.778543
334,"St. Margarets","St. Margarets","PE",46.455165,-62.384948
335,"Cable Head East","Cable Head East","PE",46.466827,-62.573427
336,"Bristol","Bristol","PE",46.415185,-62.729079
337,"West St. Peters","West St. Peters","PE",46.411948,-62.776422
338,"Commercial Cross","Commercial Cross","PE",46.127525,-62.633146
340,"Pisquid","Pisquid","PE",46.337969,-62.856041
341,"Murray River","Murray River","PE",46.011098,-62.614456
342,"Beach Point","Beach Point","PE",46.01166,-62.49206
343,"Murray Harbour North","Murray Harbour North","PE",46.054558,-62.485321
344,"Alliston","Alliston","PE",46.057878524627,-62.606417333789
345,"Cambridge","Cambridge","PE",46.073639,-62.525077
346,"Sturgeon","Sturgeon","PE",46.108642,-62.529157
347,"Kilmuir","Kilmuir","PE",46.119345,-62.666017
348,"Peters Road","Peters Road","PE",46.066684762036,-62.564653498171
349,"High Bank","High Bank","PE",45.964964,-62.622709
350,"Abney","Abney","PE",45.994543,-62.569043
351,"White Sands","White Sands","PE",45.967658,-62.558144
352,"Belle River","Belle River","PE",45.980594,-62.840412
353,"Melville","Melville","PE",46.01992,-62.827311
354,"Flat River","Flat River","PE",46.0101,-62.864813
355,"Pinette","Pinette","PE",46.056256713578,-62.909162776456
356,"Iona","Iona","PE",46.09835,-62.807194
357,"Point Prim","Point Prim","PE",46.061986,-62.990237
358,"Mount Vernon","Mount Vernon","PE",46.011876,-62.743693
359,"Uigg","Uigg","PE",46.164793,-62.813371
360,"Orwell","Orwell","PE",46.154095,-62.835208
361,"Vernon Bridge","Vernon Bridge","PE",46.178597,-62.884145
362,"Vernon River","Vernon River","PE",46.211166,-62.827045
363,"Eldon","Eldon","PE",46.09372,-62.887688
364,"Kinross","Kinross","PE",46.158565,-62.809206
365,"Bunbury","Bunbury","PE",46.234670333733,-63.068957408012
366,"Keppoch","Keppoch","PE",46.204647,-63.106313
367,"Bethel","Bethel","PE",46.244501,-62.969863
368,"Hazelbrook","Hazelbrook","PE",46.217287,-62.991923
369,"Southport","Southport","PE",46.224877,-63.104058
370,"Johnstons River","Johnstons River","PE",46.269264,-63.017025
371,"Auburn","Auburn","PE",46.295229,-62.904267
372,"Tarantum","Tarantum","PE",46.290726,-62.952977
373,"TRACADIE CROSS","TRACADIE CROSS","PE",46.346277,-62.965967
374,"York","York","PE",46.312872,-63.095265
375,"Bedford Corner","Bedford Corner","PE",46.327227,-63.018325
376,"Stanhope","Stanhope","PE",46.398732,-63.115368
377,"Grand Tracadie","Grand Tracadie","PE",46.392506,-63.052851
378,"Covehead Road","Covehead Road","PE",46.364384,-63.116831
379,"Alberry Plains","Alberry Plains","PE",46.211885,-62.781075
380,"Greenfield","Greenfield","PE",46.184758,-62.738738
381,"Elliotvale","Elliotvale","PE",46.251367,-62.77292
382,"Fort Augustus","Fort Augustus","PE",46.32003,-62.918354
383,"St. Patrick Road","St. Patrick Road","PE",46.3319,-62.777789
384,"Mount Mellick","Mount Mellick","PE",46.205055,-62.945469
385,"Earnscliffe","Earnscliffe","PE",46.14157,-62.951137
386,"Caledonia","Caledonia","PE",46.059034,-62.70911
387,"Savage Harbour","Savage Harbour","PE",46.421165,-62.864956
388,"Midgell","Midgell","PE",46.408651,-62.654244
389,"Goose River","Goose River","PE",46.455153,-62.511692
390,"Naufrage","Naufrage","PE",46.465985,-62.423289
391,"Stanhope by the Sea","Stanhope by the Sea","PE",46.411975,-63.111001
392,"Union Road","Union Road","PE",46.325315,-63.13236
393,"Brackley","Brackley","PE",46.303824,-63.146373
394,"Highfield","Highfield","PE",46.288146,-63.173092
395,"North River","North River","PE",46.256405,-63.200234
396,"Miltonvale Park","Miltonvale Park","PE",46.305783,-63.217328
397,"Hillsborough Park","Hillsborough Park","PE",46.265089,-63.114455
398,"Clyde River","Clyde River","PE",46.222408,-63.256786
399,"Cornwall","Cornwall","PE",46.225667,-63.224711
400,"Meadow Bank","Meadow Bank","PE",46.200639,-63.227902
401,"New Haven","New Haven","PE",46.21688,-63.294803
402,"Rocky Point","Rocky Point","PE",46.201739,-63.150608
403,"Cumberland","Cumberland","PE",46.173967,-63.161241
404,"Canoe Cove","Canoe Cove","PE",46.154132,-63.296002
405,"Kingston","Kingston","PE",46.263035,-63.277199
406,"North Wiltshire","North Wiltshire","PE",46.300546,-63.331781
407,"Tyrone","Tyrone","PE",46.278535,-63.34482
408,"Long Creek","Long Creek","PE",46.17149,-63.271299
409,"Crapaud","Crapaud","PE",46.240307,-63.50023
410,"Hunter River","Hunter River","PE",46.356243,-63.346278
411,"Breadalbane","Breadalbane","PE",46.354841,-63.498103
412,"Victoria","Victoria","PE",46.21878,-63.497584
413,"Hampton","Hampton","PE",46.211817,-63.460821
414,"Appin Road","Appin Road","PE",46.241019,-63.395821
415,"South Melville","South Melville","PE",46.234574,-63.433536
416,"DeSable","DeSable","PE",46.198437,-63.415764
417,"Kellys Cross","Kellys Cross","PE",46.269659,-63.447437
418,"Bonshaw","Bonshaw","PE",46.192618,-63.353706
419,"Carleton","Carleton","PE",46.692023,-64.151894
420,"BORDEN-CARLETON","BORDEN-CARLETON","PE",46.253573,-63.694622
421,"North Tryon","North Tryon","PE",46.251090251419,-63.550429230484
422,"Albany","Albany","PE",46.284758,-63.641757
423,"Middleton","Middleton","PE",46.320996,-63.645472
424,"Central Bedeque","Central Bedeque","PE",46.339442,-63.702635
425,"Bedeque","Bedeque","PE",46.33584,-63.721022
426,"Kinkora","Kinkora","PE",46.322593,-63.604281
427,"Freetown","Freetown","PE",46.373802,-63.618539
428,"Emerald Junction","Emerald Junction","PE",46.360009,-63.551164
429,"Fredericton","Fredericton","PE",46.360449,-63.424234
430,"Searletown","Searletown","PE",46.305953,-63.699116
431,"Rose Valley","Rose Valley","PE",46.319429,-63.492748
432,"Hartsville","Hartsville","PE",46.319608814059,-63.397549292318
433,"Ebenezer","Ebenezer","PE",46.353022,-63.261723
434,"Oyster Bed Bridge","Oyster Bed Bridge","PE",46.388511,-63.236295
435,"Wheatley River","Wheatley River","PE",46.373213,-63.290252
436,"South Rustico","South Rustico","PE",46.415709,-63.298876
437,"New Glasgow","New Glasgow","PE",46.409937,-63.349485
438,"Harrington","Harrington","PE",46.352792,-63.169561
439,"Brackley Beach","Brackley Beach","PE",46.420339,-63.198029
440,"Hampshire","Hampshire","PE",46.288745,-63.286926
441,"Cape Traverse","Cape Traverse","PE",46.243451,-63.63813
442,"Reads Corner","Reads Corner","PE",46.396205,-63.745183
443,"St. Eleanors","St. Eleanors","PE",46.422851,-63.810396
444,"Slemon Park","Slemon Park","PE",46.43769432633,-63.828341961173
445,"Travellers Rest","Travellers Rest","PE",46.41836,-63.738955
446,"New Annan","New Annan","PE",46.419701,-63.711734
447,"Indian River","Indian River","PE",46.477064,-63.684937
448,"Malpeque","Malpeque","PE",46.526714,-63.687315
449,"Spring Valley","Spring Valley","PE",46.498749,-63.627139
450,"Sea View","Sea View","PE",46.538526,-63.596029
451,"Margate","Margate","PE",46.457633,-63.58837
452,"Fernwood","Fernwood","PE",46.325413,-63.809625
453,"Long River","Long River","PE",46.488862,-63.540496
454,"French River","French River","PE",46.515163,-63.523891
455,"New London","New London","PE",46.464564,-63.511313
456,"Stanley Bridge","Stanley Bridge","PE",46.461257,-63.454131
457,"Granville","Granville","PE",46.426563,-63.468318
458,"Cavendish","Cavendish","PE",46.490165,-63.377196
459,"Millvale","Millvale","PE",46.41116,-63.421091
460,"Wellington","Wellington","PE",46.453056,-64.003011
461,"Rosehill","Rosehill","PE",46.46835,-63.859798
462,"Abram-Village","Abram-Village","PE",46.455008,-64.076711
463,"Tyne Valley","Tyne Valley","PE",46.575055,-63.928768
464,"Urbainville","Urbainville","PE",46.461585,-64.047795
465,"Birch Hill","Birch Hill","PE",46.555292,-63.872437
466,"Port Hill","Port Hill","PE",46.578859,-63.878063
467,"Arlington","Arlington","PE",46.528617,-63.91217
468,"St-Hubert","St-Hubert","PE",46.502832,-64.029799
469,"MacDougall","MacDougall","PE",46.509327,-63.938764
470,"Richmond","Richmond","PE",46.507536,-63.990998
471,"Bideford","Bideford","PE",46.604741,-63.914487
472,"ELLERSLIE-BIDEFORD","ELLERSLIE-BIDEFORD","PE",46.603625,-63.942801
473,"Freeland","Freeland","PE",46.677399,-63.963105
474,"Conway","Conway","PE",46.657809,-63.989144
476,"Springhill","Springhill","PE",46.560438,-64.00541
477,"Mont-Carmel","Mont-Carmel","PE",46.401405,-64.036974
478,"St. Nicholas","St. Nicholas","PE",46.425513,-63.948093
479,"Maximeville","Maximeville","PE",46.434466,-64.128209
480,"Cap-Egmont","Cap-Egmont","PE",46.402266,-64.08956
481,"St. Chrysostome","St. Chrysostome","PE",46.510179,-64.101179
482,"Northam","Northam","PE",46.544629,-63.962388
483,"Poplar Grove","Poplar Grove","PE",46.656486,-63.931505
484,"Inverness","Inverness","PE",46.650598,-64.032312
485,"Mount Pleasant","Mount Pleasant","PE",46.580645,-64.008714
486,"West Devon","West Devon","PE",46.666904,-64.117023
487,"Portage","Portage","PE",46.664341,-64.058491
488,"Coleman","Coleman","PE",46.683974,-64.173252
489,"Foxley River","Foxley River","PE",46.69238,-64.010372
490,"Cascumpec","Cascumpec","PE",46.752996,-64.08936
491,"Fortune Cove","Fortune Cove","PE",46.757337,-64.130479
492,"Bloomfield Corner","Bloomfield Corner","PE",46.761907,-64.178847
493,"St. Anthony","St. Anthony","PE",46.73567,-64.174429
494,"Piusville","Piusville","PE",46.792366,-64.193361
495,"Elmsdale","Elmsdale","PE",46.818985,-64.138695
496,"Rosebank","Rosebank","PE",46.795396,-64.156802
497,"Knutsford","Knutsford","PE",46.697835,-64.283447
498,"Springfield West","Springfield West","PE",46.683942,-64.363986
499,"Cape Wolfe","Cape Wolfe","PE",46.720677,-64.39325
500,"Glenwood","Glenwood","PE",46.64759,-64.315522
501,"West Point","West Point","PE",46.622981,-64.375626
502,"Dunblane","Dunblane","PE",46.650267,-64.333645
503,"Milo","Milo","PE",46.64832,-64.222521
504,"Brae","Brae","PE",46.661948,-64.191933
505,"Brae Harbour","Brae Harbour","PE",46.6167,-64.183297
506,"Campbellton","Campbellton","PE",46.792108,-64.30309
507,"St. Louis","St. Louis","PE",46.887252,-64.138826
508,"St. Edward","St. Edward","PE",46.879846,-64.181731
509,"St. Lawrence","St. Lawrence","PE",46.846914,-64.215299
510,"Pleasant View","Pleasant View","PE",46.916699,-64.199997
511,"Palmer Road","Palmer Road","PE",46.913187,-64.15943
512,"Skinners Pond","Skinners Pond","PE",46.964911,-64.120361
513,"Tignish Corner","Tignish Corner","PE",46.947933,-64.049071
514,"Nail Pond","Nail Pond","PE",46.983299,-64.066704
515,"Seacow Pond","Seacow Pond","PE",47.030916,-63.996967
516,"Norway","Norway","PE",47.008882,-64.032334
517,"Tignish Shore","Tignish Shore","PE",46.947512,-64.001269
518,"St. Felix","St. Felix","PE",46.932026,-64.023289
519,"Anglo Tignish","Anglo Tignish","PE",46.9833,-63.999998
520,"Greenmount","Greenmount","PE",46.897892,-64.042552
521,"Montrose","Montrose","PE",46.86657778,-64.06793333
522,"Alma","Alma","PE",46.860959,-64.109025
523,"Leoville","Leoville","PE",46.922488,-64.120631
524,"East Havre Boucher","East Havre Boucher","NS",45.676964,-61.494524
525,"Aulds Cove","Aulds Cove","NS",45.646434,-61.435926
526,"Pirate Harbour","Pirate Harbour","NS",45.583545,-61.38669
527,"Middle Melford","Middle Melford","NS",45.535218,-61.314123
528,"Sand Point","Sand Point","NS",45.517906,-61.256058
529,"Steep Creek","Steep Creek","NS",45.554152,-61.343932
530,"Hadleyville","Hadleyville","NS",45.45987,-61.283252
531,"Manassette Lake","Manassette Lake","NS",45.434106,-61.333369
532,"St. Francis Harbour","St. Francis Harbour","NS",45.448657,-61.311548
533,"MacPherson Lake","MacPherson Lake","NS",45.435048,-61.431503
534,"Port Shoreham","Port Shoreham","NS",45.423177,-61.424944
535,"Boylston","Boylston","NS",45.4333,-61.5
536,"Sunnyville","Sunnyville","NS",45.388173,-61.535527
537,"Cooks Cove","Cooks Cove","NS",45.365873,-61.487726
538,"Half Island Cove","Half Island Cove","NS",45.346998,-61.200006
539,"Halfway Cove","Halfway Cove","NS",45.34759,-61.366306
540,"Peas Brook","Peas Brook","NS",45.35047,-61.314231
541,"Philips Harbour","Philips Harbour","NS",45.347228,-61.239343
542,"Queensport","Queensport","NS",45.337372,-61.265233
543,"Durells Island","Durells Island","NS",45.343282,-61.005749
544,"Fox Island Main","Fox Island Main","NS",45.340433,-61.103392
545,"Hazel Hill","Hazel Hill","NS",45.324019,-61.031094
546,"Dover","Dover","NS",45.28441,-61.048445
547,"Cole Harbour","Cole Harbour","NS",45.257366,-61.271945
548,"Lower Whitehead","Lower Whitehead","NS",45.218617,-61.180453
549,"Port Felix","Port Felix","NS",45.25,-61.216702
550,"Upper Whitehead","Upper Whitehead","NS",45.281473,-61.170622
551,"Whitehead","Whitehead","NS",45.240595,-61.189136
552,"Charlos Cove","Charlos Cove","NS",45.248457,-61.32957
553,"Larrys River","Larrys River","NS",45.229971,-61.377967
554,"Tor Bay","Tor Bay","NS",45.198845,-61.363903
555,"Lundy","Lundy","NS",45.282193,-61.505916
556,"New Harbour","New Harbour","NS",45.168601,-61.452025
557,"New Harbour East","New Harbour East","NS",45.204435,-61.488232
558,"New Harbour West","New Harbour West","NS",45.19447,-61.493469
559,"Upper New Harbour","Upper New Harbour","NS",45.220461,-61.520482
560,"Coddles Harbour","Coddles Harbour","NS",45.166432,-61.539366
561,"Drum Head","Drum Head","NS",45.150001,-61.599997
562,"Seal Harbour","Seal Harbour","NS",45.150002,-61.583302
563,"Goldboro","Goldboro","NS",45.1833,-61.650001
564,"Isaacs Harbour","Isaacs Harbour","NS",45.183301,-61.6667
565,"Isaacs Harbour North","Isaacs Harbour North","NS",45.20225,-61.675576
566,"Erinville","Erinville","NS",45.37443,-61.745547
567,"Salmon River Lake","Salmon River Lake","NS",45.358646,-61.722315
568,"Guysborough Intervale","Guysborough Intervale","NS",45.454215,-61.615192
569,"Havendale","Havendale","NS",45.453099,-61.580749
570,"Lincolnville","Lincolnville","NS",45.50718,-61.548981
571,"Roachvale","Roachvale","NS",45.349998,-61.549998
572,"Middle Country Harbour","Middle Country Harbour","NS",45.237423,-61.766805
573,"Country Harbour Lake","Country Harbour Lake","NS",45.302166,-61.906007
574,"Cross Roads Country Harbour","Cross Roads Country Harbour","NS",45.276729,-61.883832
575,"Bickerton West","Bickerton West","NS",45.0964,-61.7315
576,"Fishermans Harbour","Fishermans Harbour","NS",45.111363,-61.686482
577,"Port Bickerton","Port Bickerton","NS",45.107058,-61.723834
578,"Indian Harbour Lake","Indian Harbour Lake","NS",45.134547,-61.88229
579,"Port Hilford","Port Hilford","NS",45.107817,-61.847432
580,"Harpellville","Harpellville","NS",45.110257,-61.771561
581,"Wine Harbour","Wine Harbour","NS",45.074472,-61.842544
582,"Sonora","Sonora","NS",45.057209,-61.895998
583,"Sherbrooke","Sherbrooke","NS",45.142926,-61.982547
584,"Goldenville","Goldenville","NS",45.122851,-62.009406
585,"Aspen","Aspen","NS",45.301369,-62.051468
586,"Glenelg","Glenelg","NS",45.26122,-62.077423
587,"Melrose","Melrose","NS",45.261132,-62.047138
588,"Goshen","Goshen","NS",45.377693,-61.972529
589,"Lochaber","Lochaber","NS",45.415814,-62.023197
590,"South Lochaber","South Lochaber","NS",45.38298,-62.044416
591,"West Lochaber","West Lochaber","NS",45.413345,-62.036013
592,"East River St. Marys","East River St. Marys","NS",45.392667,-62.166667
593,"Caledonia","Caledonia","NS",45.282,-62.392775
594,"Trafalgar","Trafalgar","NS",45.284224,-62.66905
595,"Little Liscomb","Little Liscomb","NS",45.027602,-61.973384
596,"Liscomb","Liscomb","NS",45.021332,-62.000452
597,"Spanish Ship Bay","Spanish Ship Bay","NS",45.029692,-62.032112
598,"Liscomb Mills","Liscomb Mills","NS",45.0125,-62.101
599,"Marie Joseph","Marie Joseph","NS",44.969402,-62.08521
600,"West Liscomb","West Liscomb","NS",44.996716,-62.097396
601,"Ecum Secum","Ecum Secum","NS",44.966701,-62.1333
602,"Ecum Secum Bridge","Ecum Secum Bridge","NS",44.972,-62.1678
603,"Ecum Secum West","Ecum Secum West","NS",44.959119,-62.165049
604,"East Quoddy","East Quoddy","NS",44.916058,-62.32161
605,"Harrigan Cove","Harrigan Cove","NS",44.925825,-62.298697
606,"West Quoddy","West Quoddy","NS",44.916699,-62.349999
607,"Port Dufferin","Port Dufferin","NS",44.916699,-62.383303
608,"Port Dufferin West","Port Dufferin West","NS",44.903415,-62.40325
609,"Sheet Harbour Passage","Sheet Harbour Passage","NS",44.858739,-62.44242
610,"Sober Island","Sober Island","NS",44.8488,-62.4653
611,"East River Sheet Harbour","East River Sheet Harbour","NS",44.920549,-62.513042
612,"West Sheet Harbour","West Sheet Harbour","NS",44.912146,-62.541862
613,"Watt Section","Watt Section","NS",44.900001,-62.483298
614,"Moosehead","Moosehead","NS",44.945408,-62.264256
615,"Mooseland","Mooseland","NS",44.949918,-62.799823
616,"Sheet Harbour Road","Sheet Harbour Road","NS",45.122067,-62.900882
617,"Dean","Dean","NS",45.200001,-62.883299
618,"Elmsvale","Elmsvale","NS",45.085709,-63.071434
619,"Centre Musquodoboit","Centre Musquodoboit","NS",45.099999,-63.033298
620,"Chaswood","Chaswood","NS",45.045383,-63.216575
621,"Elderbank","Elderbank","NS",44.983299,-63.216701
622,"Lower Meaghers Grant","Lower Meaghers Grant","NS",44.918983,-63.240849
623,"Meaghers Grant","Meaghers Grant","NS",44.934664,-63.237732
624,"Moose River Gold Mines","Moose River Gold Mines","NS",44.985472,-62.941827
625,"Newcomb Corner","Newcomb Corner","NS",45.068999,-63.046055
626,"Lochaber Mines","Lochaber Mines","NS",45.005477,-62.475807
627,"Malay Falls","Malay Falls","NS",44.98727,-62.482328
628,"Fern Hill","Fern Hill","NS",44.821927,-62.632969
629,"Popes Harbour","Popes Harbour","NS",44.8117,-62.6383
630,"Spry Bay","Spry Bay","NS",44.837936,-62.587805
631,"Spry Harbour","Spry Harbour","NS",44.833467,-62.627241
632,"East Ship Harbour","East Ship Harbour","NS",44.781989,-62.810801
633,"Lower Ship Harbour","Lower Ship Harbour","NS",44.783299,-62.833301
634,"Murphys Cove","Murphys Cove","NS",44.787322,-62.747839
635,"Pleasant Harbour","Pleasant Harbour","NS",44.789687,-62.719502
636,"Ship Harbour","Ship Harbour","NS",44.816699,-62.883301
637,"Lake Charlotte","Lake Charlotte","NS",44.766265,-62.945075
638,"Upper Lakeville","Upper Lakeville","NS",44.789286,-62.970493
639,"Clam Bay","Clam Bay","NS",44.7281,-62.9176
640,"Clam Harbour","Clam Harbour","NS",44.734522,-62.881363
641,"DeBaies Cove","DeBaies Cove","NS",44.750001,-62.816701
642,"Owls Head","Owls Head","NS",44.733299,-62.833301
643,"Little Harbour","Little Harbour","NS",44.710451,-62.839967
644,"East Jeddore","East Jeddore","NS",44.729461,-63.002964
645,"Hartlin Settlement","Hartlin Settlement","NS",44.7667,-63.000001
646,"Head of Jeddore","Head of Jeddore","NS",44.777295,-63.071325
647,"Oyster Pond","Oyster Pond","NS",44.786658,-63.005325
648,"Myers Point","Myers Point","NS",44.769794,-63.039935
649,"Salmon River Bridge","Salmon River Bridge","NS",44.77919,-63.02879
650,"Ostrea Lake","Ostrea Lake","NS",44.720749,-63.085663
651,"Pleasant Point","Pleasant Point","NS",44.690077,-63.068052
652,"West Jeddore","West Jeddore","NS",44.7155,-63.0109
653,"East Petpeswick","East Petpeswick","NS",44.764307,-63.14695
654,"Gaetz Brook","Gaetz Brook","NS",44.76097,-63.217469
655,"Head of Chezzetcook","Head of Chezzetcook","NS",44.742023,-63.24954
656,"East Chezzetcook","East Chezzetcook","NS",44.721018,-63.234371
657,"Porter","Porter","NS",44.746447,-63.296747
658,"Conrod Settlement","Conrod Settlement","NS",44.766701,-63.233299
659,"Grand Desert","Grand Desert","NS",44.690215,-63.257165
660,"Middle Porters Lake","Middle Porters Lake","NS",44.699785,-63.305696
661,"Seaforth","Seaforth","NS",44.671804,-63.256422
662,"Three Fathom Harbour","Three Fathom Harbour","NS",44.65474,-63.291586
663,"Mineville","Mineville","NS",44.691577,-63.37868
664,"Lawrencetown","Lawrencetown","NS",44.665864,-63.373315
665,"Upper Lawrencetown","Upper Lawrencetown","NS",44.682041,-63.452231
666,"Cow Bay","Cow Bay","NS",44.623598,-63.420898
667,"South East Passage","South East Passage","NS",44.601065,-63.467945
668,"Grahams Corner","Grahams Corner","NS",44.682042,-63.545206
669,"Woodside","Woodside","NS",44.653822,-63.545473
670,"Port Wallace","Port Wallace","NS",44.702214,-63.54586
671,"Glen Moir","Glen Moir","NS",44.72422,-63.674883
672,"Jollimore","Jollimore","NS",44.629874,-63.606263
673,"Spryfield","Spryfield","NS",44.616699,-63.616699
674,"Rockingham","Rockingham","NS",44.680075,-63.659475
675,"Harrietsfield","Harrietsfield","NS",44.571441,-63.636127
676,"Hammonds Plains Road","Hammonds Plains Road","NS",44.725074,-63.742098
677,"Brookside","Brookside","NS",44.554814,-63.719037
678,"Lakeside","Lakeside","NS",44.635861,-63.701916
679,"Timberlea","Timberlea","NS",44.664195,-63.751817
680,"Stillwater Lake","Stillwater Lake","NS",44.700855,-63.838371
681,"Yankeetown","Yankeetown","NS",44.722677,-63.82065
682,"English Corner","English Corner","NS",44.733299,-63.7833
683,"Middle Sackville","Middle Sackville","NS",44.783018,-63.692904
684,"Beaver Bank","Beaver Bank","NS",44.799999,-63.683299
685,"Ketch Harbour","Ketch Harbour","NS",44.492432,-63.551988
686,"Sambro Head","Sambro Head","NS",44.4836,-63.5832
687,"Williamswood","Williamswood","NS",44.517539,-63.64073
688,"Portuguese Cove","Portuguese Cove","NS",44.5204,-63.5328
689,"Terence Bay","Terence Bay","NS",44.466831,-63.716988
690,"Lower Prospect","Lower Prospect","NS",44.453695,-63.725754
691,"Bayside","Bayside","NS",44.527668,-63.806308
692,"Shad Bay","Shad Bay","NS",44.524682,-63.785769
693,"Whites Lake","Whites Lake","NS",44.528417,-63.760513
694,"East Dover","East Dover","NS",44.494604,-63.847703
695,"McGraths Cove","McGraths Cove","NS",44.506362,-63.850876
696,"West Dover","West Dover","NS",44.490727,-63.871695
697,"Peggys Cove","Peggys Cove","NS",44.492399,-63.91555
698,"Indian Harbour","Indian Harbour","NS",44.5167,-63.9333
699,"Glen Margaret","Glen Margaret","NS",44.5843,-63.9168
700,"Glen Haven","Glen Haven","NS",44.642699,-63.909701
701,"Seabright","Seabright","NS",44.610603,-63.925181
702,"Black Point","Black Point","NS",44.655177,-63.992415
703,"Boutiliers Point","Boutiliers Point","NS",44.662546,-63.950076
704,"Hubbards","Hubbards","NS",44.638516,-64.053217
705,"Head of St. Margarets Bay","Head of St. Margarets Bay","NS",44.682872,-63.915267
706,"Upper Tantallon","Upper Tantallon","NS",44.689042,-63.886205
707,"Fall River West","Fall River West","NS",44.801274,-63.632847
708,"Windsor Junction","Windsor Junction","NS",44.783298,-63.633302
709,"Wellington Station","Wellington Station","NS",44.858271,-63.61645
710,"Grand Lake","Grand Lake","NS",44.894377,-63.586842
711,"Mill Cove","Mill Cove","NS",44.589599,-64.064599
712,"Fox Point","Fox Point","NS",44.614586,-64.060036
713,"Northwest Cove","Northwest Cove","NS",44.528898,-64.02494
714,"Bayswater","Bayswater","NS",44.501582,-64.067747
715,"Blandford","Blandford","NS",44.485542,-64.110074
716,"Upper Blandford","Upper Blandford","NS",44.516702,-64.116699
717,"Tancook Island","Tancook Island","NS",44.466702,-64.166702
718,"Commons","Commons","NS",44.55184,-64.230564
719,"East River","East River","NS",44.588309,-64.16843
720,"Squid Cove","Squid Cove","NS",44.583302,-64.199996
721,"Marriotts Cove","Marriotts Cove","NS",44.556379,-64.270814
722,"Chester Basin","Chester Basin","NS",44.566493,-64.308402
723,"Acadia","Acadia","NS",44.557214,-64.342689
724,"Gold River","Gold River","NS",44.541149,-64.316364
725,"Western Shore","Western Shore","NS",44.52273,-64.307207
726,"Martins Point","Martins Point","NS",44.493601,-64.314971
727,"Indian Point","Indian Point","NS",44.460018,-64.316232
728,"Blockhouse","Blockhouse","NS",44.446804,-64.412183
729,"New Ross","New Ross","NS",44.737592,-64.456581
730,"Leville","Leville","NS",44.750001,-64.416704
731,"Mill Road","Mill Road","NS",44.783299,-64.449997
732,"New Russell","New Russell","NS",44.766701,-64.416702
733,"Vaughan","Vaughan","NS",44.816699,-64.233298
734,"Oakland","Oakland","NS",44.451407,-64.366909
735,"Martins Brook","Martins Brook","NS",44.408404,-64.338532
736,"Sunnybrook","Sunnybrook","NS",44.412911,-64.336343
737,"Blue Rocks","Blue Rocks","NS",44.354206,-64.243738
738,"Lunenburg","Lunenburg","NS",44.37745,-64.316941
739,"First South","First South","NS",44.372204,-64.34718
740,"Rhodes Corner","Rhodes Corner","NS",44.377854,-64.4151
741,"Masons Beach","Masons Beach","NS",44.364363,-64.336194
742,"Bayport","Bayport","NS",44.323822,-64.316675
743,"Rose Bay","Rose Bay","NS",44.299264,-64.304115
744,"Riverport","Riverport","NS",44.298796,-64.329878
745,"Kingsburg","Kingsburg","NS",44.276347,-64.262643
746,"Dublin Shore","Dublin Shore","NS",44.269164,-64.366048
747,"LaHave","LaHave","NS",44.294273,-64.36094
748,"Mount Pleasant","Mount Pleasant","NS",44.28569,-64.426601
749,"Pentz","Pentz","NS",44.302454,-64.395784
750,"West Dublin","West Dublin","NS",44.253285,-64.399618
751,"Bush Island","Bush Island","NS",44.235645,-64.370571
752,"Heckmans Island","Heckmans Island","NS",44.383301,-64.25
753,"Feltzen South","Feltzen South","NS",44.329454,-64.286112
754,"Pleasantville","Pleasantville","NS",44.33977,-64.442253
755,"Upper LaHave","Upper LaHave","NS",44.36711,-64.44469
756,"Oakhill","Oakhill","NS",44.397162,-64.500947
757,"Dayspring","Dayspring","NS",44.375379,-64.480896
758,"Maitland","Maitland","NS",44.426758,-64.457526
759,"Hebbville","Hebbville","NS",44.355451,-64.537581
760,"Newcombville","Newcombville","NS",44.380389,-64.622276
761,"Mossman Corner","Mossman Corner","NS",44.444941,-64.584441
762,"Pinehurst","Pinehurst","NS",44.499999,-64.650001
763,"Bakers Settlement","Bakers Settlement","NS",44.398732,-64.679869
764,"Midville Branch","Midville Branch","NS",44.423663,-64.636965
765,"Barss Corner","Barss Corner","NS",44.5667,-64.683294
766,"Union Square","Union Square","NS",44.551152,-64.641323
767,"Elmwood","Elmwood","NS",44.583302,-64.633301
768,"North River","North River","NS",44.6167,-64.7667
769,"Springfield","Springfield","NS",44.630223,-64.860683
770,"Hemford","Hemford","NS",44.506019,-64.792891
771,"Pleasant River","Pleasant River","NS",44.438981,-64.881842
772,"North Brookfield","North Brookfield","NS",44.407707,-64.95577
773,"Acadia","Acadia","NS",44.354184,-64.920122
774,"Caledonia","Caledonia","NS",44.372859,-65.028928
775,"South Brookfield","South Brookfield","NS",44.383301,-64.966698
776,"Maitland Bridge","Maitland Bridge","NS",44.439926,-65.193589
777,"Meagher","Meagher","NS",44.400001,-65.050001
778,"Chelsea","Chelsea","NS",44.366745,-64.755386
779,"Hebbs Cross","Hebbs Cross","NS",44.299999,-64.566703
780,"Italy Cross","Italy Cross","NS",44.266701,-64.550003
781,"Petite Rivière","Petite Rivière","NS",44.227619,-64.452572
782,"Broad Cove","Broad Cove","NS",44.183301,-64.483299
783,"Voglers Cove","Voglers Cove","NS",44.157485,-64.534822
784,"Cherry Hill","Cherry Hill","NS",44.151246,-64.49372
785,"Charleston","Charleston","NS",44.164181,-64.661791
786,"Danesville","Danesville","NS",44.192773,-64.621418
787,"East Port Medway","East Port Medway","NS",44.155682,-64.571734
788,"Mill Village","Mill Village","NS",44.145171,-64.647233
789,"Port Medway","Port Medway","NS",44.125543,-64.576405
790,"Beach Meadows","Beach Meadows","NS",44.064518,-64.637455
791,"Mount Pleasant","Mount Pleasant","NS",44.033299,-64.699998
792,"Moose Harbour","Moose Harbour","NS",44.016701,-64.666701
793,"Hunts Point","Hunts Point","NS",43.954745,-64.777714
794,"Summerville Centre","Summerville Centre","NS",43.955362,-64.808395
795,"White Point","White Point","NS",43.962253,-64.745258
796,"Port Mouton","Port Mouton","NS",43.926836,-64.847605
797,"Central Port Mouton","Central Port Mouton","NS",43.912402,-64.839776
798,"South West Port Mouton","South West Port Mouton","NS",43.896544,-64.811478
799,"Port Joli","Port Joli","NS",43.880504,-64.906162
800,"St. Catherines River","St. Catherines River","NS",43.852735,-64.854961
801,"Sable River","Sable River","NS",43.840285,-65.059441
802,"Little Harbour","Little Harbour","NS",43.7168,-65.0359
803,"Louis Head","Louis Head","NS",43.75,-65.0167
804,"Allendale","Allendale","NS",43.751024,-65.093177
805,"Lydgate","Lydgate","NS",43.719904,-65.123803
806,"East Jordan","East Jordan","NS",43.766701,-65.216698
807,"Birchtown","Birchtown","NS",43.749999,-65.3833
808,"Churchover","Churchover","NS",43.717451,-65.36566
809,"Gunning Cove","Gunning Cove","NS",43.6833,-65.350001
810,"Ingomar","Ingomar","NS",43.561407,-65.356239
811,"Roseway","Roseway","NS",43.631827,-65.345968
812,"North East Harbour","North East Harbour","NS",43.55,-65.3833
813,"Port Clyde","Port Clyde","NS",43.599998,-65.466697
814,"Upper Port La Tour","Upper Port La Tour","NS",43.513186,-65.467103
815,"Baccaro","Baccaro","NS",43.476272,-65.47153
816,"Port La Tour","Port La Tour","NS",43.499998,-65.477263
817,"East Baccaro","East Baccaro","NS",43.460552,-65.467908
818,"West Baccaro","West Baccaro","NS",43.462154,-65.488477
819,"North East Point","North East Point","NS",43.510251,-65.604414
820,"South Side","South Side","NS",43.442092,-65.600384
821,"Stoney Island","Stoney Island","NS",43.467198,-65.56944
822,"The Hawk","The Hawk","NS",43.416109,-65.619106
823,"Newellton","Newellton","NS",43.466701,-65.633302
824,"Barrington Head","Barrington Head","NS",43.5669,-65.5792
825,"Barrington Passage","Barrington Passage","NS",43.526185,-65.610611
826,"Brass Hill","Brass Hill","NS",43.553191,-65.600343
827,"Crowell","Crowell","NS",43.541275,-65.606397
828,"Doctors Cove","Doctors Cove","NS",43.520019,-65.630612
829,"Central Woods Harbour","Central Woods Harbour","NS",43.55,-65.7333
830,"Upper Woods Harbour","Upper Woods Harbour","NS",43.583303,-65.750001
831,"Centre East Pubnico","Centre East Pubnico","NS",43.633301,-65.766699
832,"East Pubnico","East Pubnico","NS",43.671654,-65.761533
833,"Lower West Pubnico","Lower West Pubnico","NS",43.633301,-65.800003
834,"Middle East Pubnico","Middle East Pubnico","NS",43.650002,-65.766703
835,"Middle West Pubnico","Middle West Pubnico","NS",43.651429,-65.803072
836,"Pubnico","Pubnico","NS",43.700001,-65.783304
837,"Upper West Pubnico","Upper West Pubnico","NS",43.680592,-65.793357
838,"West Pubnico","West Pubnico","NS",43.66722,-65.799647
839,"Lower East Pubnico","Lower East Pubnico","NS",43.613768,-65.771392
840,"Lower Argyle","Lower Argyle","NS",43.733298,-65.833297
841,"Central Argyle","Central Argyle","NS",43.774249,-65.841196
842,"Argyle","Argyle","NS",43.793877,-65.855036
843,"Amiraults Hill","Amiraults Hill","NS",43.814911,-65.982041
844,"Sluice Point","Sluice Point","NS",43.791379,-65.966777
845,"Tusket","Tusket","NS",43.853975,-65.973877
846,"Belleville","Belleville","NS",43.856245,-65.92651
847,"Ste. Anne du Ruisseau","Ste. Anne du Ruisseau","NS",43.837196,-65.928428
848,"Arcadia","Arcadia","NS",43.823792,-66.06018
849,"Rockville","Rockville","NS",43.775304,-66.115122
850,"Pinkneys Point","Pinkneys Point","NS",43.716982,-66.064686
851,"Milton Highlands","Milton Highlands","NS",43.855914,-66.122491
852,"Central Chebogue","Central Chebogue","NS",43.789719,-66.089711
853,"Dayton","Dayton","NS",43.873492,-66.103484
854,"Hebron","Hebron","NS",43.888388,-66.091395
855,"Brooklyn","Brooklyn","NS",43.866698,-66.083296
856,"South Ohio","South Ohio","NS",43.922475,-66.0646
857,"Darlings Lake","Darlings Lake","NS",43.955591,-66.133135
858,"Sandford","Sandford","NS",43.920208,-66.147634
859,"Deerfield","Deerfield","NS",43.952912,-65.993968
860,"Gavelton","Gavelton","NS",43.897559,-65.951236
861,"Port Maitland","Port Maitland","NS",43.987153,-66.148602
862,"Beaver River","Beaver River","NS",44.029857,-66.142921
863,"Lake Doucette","Lake Doucette","NS",44.057761,-66.139932
864,"Salmon River","Salmon River","NS",44.052322,-66.159708
865,"East Quinan","East Quinan","NS",43.925825,-65.806745
866,"Quinan","Quinan","NS",43.918818,-65.827032
867,"South Quinan","South Quinan","NS",43.918617,-65.800498
868,"Springhaven","Springhaven","NS",43.901378,-65.871782
869,"Carleton","Carleton","NS",44.008728,-65.934889
870,"Kemptville","Kemptville","NS",44.053555,-65.831808
871,"Corberrie","Corberrie","NS",44.237713,-65.924595
872,"Forest Glen","Forest Glen","NS",44.083302,-65.916702
873,"Havelock","Havelock","NS",44.306537,-65.921709
874,"New Tusket","New Tusket","NS",44.284918,-65.904581
875,"Richfield","Richfield","NS",44.118631,-65.929144
876,"Lake Annis","Lake Annis","NS",44.05,-66.000001
877,"Hectanooga","Hectanooga","NS",44.091828,-66.029418
878,"Brazil Lake","Brazil Lake","NS",43.991532,-66.001042
879,"Mavillette","Mavillette","NS",44.10135,-66.185211
880,"Cape St. Marys","Cape St. Marys","NS",44.087231,-66.210124
881,"St. Alphonse","St. Alphonse","NS",44.134189,-66.174207
882,"Meteghan Centre","Meteghan Centre","NS",44.19565,-66.147283
883,"Meteghan River","Meteghan River","NS",44.219415,-66.1432
884,"Lower Saulnierville","Lower Saulnierville","NS",44.233299,-66.1333
885,"Meteghan Station","Meteghan Station","NS",44.205134,-66.092098
886,"Saulnierville Station","Saulnierville Station","NS",44.25,-66.099998
887,"Freeport","Freeport","NS",44.282963,-66.318027
888,"Westport","Westport","NS",44.262451,-66.354304
889,"Comeauville","Comeauville","NS",44.285981,-66.130768
890,"Concession","Concession","NS",44.289221,-66.070487
891,"Little Brook","Little Brook","NS",44.302632,-66.121303
892,"Church Point","Church Point","NS",44.337834,-66.113618
893,"East Ferry","East Ferry","NS",44.39457,-66.201596
894,"Tiverton","Tiverton","NS",44.390892,-66.216531
895,"Little River","Little River","NS",44.445162,-66.145279
896,"Sandy Cove","Sandy Cove","NS",44.491725,-66.089137
897,"Centreville","Centreville","NS",44.550463,-66.025317
898,"Rossway","Rossway","NS",44.580229,-65.91524
899,"Belliveaus Cove","Belliveaus Cove","NS",44.386828,-66.060057
900,"Grosses Coques","Grosses Coques","NS",44.357676,-66.101885
901,"St. Bernard","St. Bernard","NS",44.403922,-66.037531
902,"Gilberts Cove","Gilberts Cove","NS",44.485393,-65.941418
903,"Weymouth North","Weymouth North","NS",44.437845,-65.996231
904,"Weymouth Falls","Weymouth Falls","NS",44.401422,-65.957271
905,"Plympton","Plympton","NS",44.504616,-65.917102
906,"Barton","Barton","NS",44.535328,-65.872454
907,"Hassett","Hassett","NS",44.349998,-65.933295
908,"Weaver Settlement","Weaver Settlement","NS",44.383301,-65.966697
909,"Doucetteville","Doucetteville","NS",44.448439,-65.823137
910,"Marshalltown","Marshalltown","NS",44.581474,-65.809327
911,"Seabrook","Seabrook","NS",44.610253,-65.808944
912,"Jordantown","Jordantown","NS",44.58897,-65.775797
913,"Roxville","Roxville","NS",44.609488,-65.868213
914,"Bay View","Bay View","NS",44.680244,-65.774647
915,"Victoria Beach","Victoria Beach","NS",44.676485,-65.752534
916,"Smiths Cove","Smiths Cove","NS",44.608972,-65.71254
917,"Bear River","Bear River","NS",44.575189,-65.636027
919,"North Kemptville","North Kemptville","NS",44.082901,-65.834028
920,"Cornwallis Park","Cornwallis Park","NS",44.649904,-65.629098
921,"Clementsport","Clementsport","NS",44.662715,-65.61196
922,"Port Royal","Port Royal","NS",44.717619,-65.602583
923,"Upper Clements","Upper Clements","NS",44.696778,-65.582862
924,"Delaps Cove","Delaps Cove","NS",44.765313,-65.636959
925,"Clementsvale","Clementsvale","NS",44.618236,-65.563481
926,"Virginia East","Virginia East","NS",44.632226,-65.506171
927,"Bear River","Bear River","NS",44.705899,-65.502435
928,"Lequille","Lequille","NS",44.732647,-65.493174
929,"Granville Ferry","Granville Ferry","NS",44.755431,-65.525129
930,"Parkers Cove","Parkers Cove","NS",44.817681,-65.51808
931,"Round Hill","Round Hill","NS",44.769653,-65.408258
932,"Moschelle","Moschelle","NS",44.753925,-65.466692
933,"Hillsburn","Hillsburn","NS",44.8,-65.566704
934,"Litchfield","Litchfield","NS",44.7833,-65.6
935,"Granville Centre","Granville Centre","NS",44.783298,-65.449996
936,"Belleisle","Belleisle","NS",44.80215,-65.403874
937,"Centrelea","Centrelea","NS",44.8167,-65.316703
938,"Tupperville","Tupperville","NS",44.8,-65.366699
939,"Phinneys Cove","Phinneys Cove","NS",44.885442,-65.395248
940,"Youngs Cove","Youngs Cove","NS",44.866699,-65.433296
941,"Carleton Corner","Carleton Corner","NS",44.834813,-65.297487
942,"West Paradise","West Paradise","NS",44.854095,-65.222624
943,"Paradise","Paradise","NS",44.869368,-65.217563
944,"Hampton","Hampton","NS",44.904794,-65.34933
945,"Port Lorne","Port Lorne","NS",44.946592,-65.264758
946,"Lawrencetown","Lawrencetown","NS",44.876023,-65.155402
947,"Falkland Ridge","Falkland Ridge","NS",44.671883,-64.855799
948,"Albany","Albany","NS",44.800034,-65.056964
949,"Nictaux","Nictaux","NS",44.926031,-65.047958
950,"Nictaux Falls","Nictaux Falls","NS",44.909569,-65.031644
951,"Brickton","Brickton","NS",44.908655,-65.124596
952,"Port George","Port George","NS",45.004005,-65.157578
953,"Melvern Square","Melvern Square","NS",44.983299,-64.9833
954,"Albany Cross","Albany Cross","NS",44.721123,-65.022808
955,"South Farmington","South Farmington","NS",44.961486,-64.998294
956,"Aylesford","Aylesford","NS",45.029077,-64.840676
957,"Auburn","Auburn","NS",45.019438,-64.87021
958,"Millville","Millville","NS",44.99535,-64.816638
959,"Morristown","Morristown","NS",44.98576,-64.76756
960,"Morden","Morden","NS",45.102632,-64.944549
961,"Harbourville","Harbourville","NS",45.150318,-64.804348
962,"Somerset","Somerset","NS",45.073369,-64.749888
963,"Black Rock","Black Rock","NS",45.16978735,-64.7564681
964,"Canada Creek","Canada Creek","NS",45.170315,-64.74301
965,"Waterville","Waterville","NS",45.054069,-64.672352
966,"Cambridge","Cambridge","NS",45.05792,-64.635755
967,"Kinsmans Corner","Kinsmans Corner","NS",45.099409,-64.6588
969,"Berwick West","Berwick West","NS",45.031275,-64.748616
970,"Weston","Weston","NS",45.058426,-64.792518
971,"Lake George","Lake George","NS",44.922628,-64.69569
972,"Lake Paul","Lake Paul","NS",44.86696,-64.67755
973,"East Dalhousie","East Dalhousie","NS",44.713346,-64.743015
974,"Forties","Forties","NS",44.731572,-64.564571
975,"Lake Ramsay","Lake Ramsay","NS",44.753051,-64.522803
976,"Aldersville","Aldersville","NS",44.8167,-64.5
977,"Forest Home","Forest Home","NS",44.9333,-64.516702
978,"Welton Landing","Welton Landing","NS",44.991279,-64.530252
979,"South Alton","South Alton","NS",45.01736,-64.536168
980,"North Alton","North Alton","NS",45.050395,-64.524229
981,"Coldbrook","Coldbrook","NS",45.058872,-64.59142
982,"Shubenacadie","Shubenacadie","NS",44.843401,-64.415049
983,"Lakeville","Lakeville","NS",45.109052,-64.609203
984,"Centreville","Centreville","NS",45.134608,-64.528177
985,"Halls Harbour","Halls Harbour","NS",45.200001,-64.6167
986,"Steam Mill","Steam Mill","NS",45.109562,-64.513954
987,"Port Williams","Port Williams","NS",45.097876,-64.409635
988,"Greenwich","Greenwich","NS",45.08417,-64.39936
989,"Kingsport","Kingsport","NS",45.160651,-64.362309
990,"Sheffield Mills","Sheffield Mills","NS",45.150303,-64.475666
991,"Scots Bay","Scots Bay","NS",45.306332,-64.398158
992,"Lower Blomidon","Lower Blomidon","NS",45.249312,-64.359408
993,"Habitant","Habitant","NS",45.152532,-64.396011
994,"Upper Canard","Upper Canard","NS",45.125847,-64.468448
995,"Green Acres","Green Acres","NS",45.00179,-64.917519
996,"South Greenwood","South Greenwood","NS",44.972505,-64.878974
997,"Baxters Harbour","Baxters Harbour","NS",45.226026,-64.516214
998,"Gaspereau","Gaspereau","NS",45.067712,-64.353235
999,"White Rock","White Rock","NS",45.051145,-64.413037
1000,"Avonport","Avonport","NS",45.099255,-64.255121
1001,"Grand Pré","Grand Pré","NS",45.104174,-64.307294
1002,"North Grand Pré","North Grand Pré","NS",45.136652,-64.314638
1003,"Summerville","Summerville","NS",45.1,-64.166703
1004,"Hants Border","Hants Border","NS",45.071744,-64.190638
1005,"Kempt Shore","Kempt Shore","NS",45.128519,-64.191214
1006,"St. Croix","St. Croix","NS",44.962607,-64.030799
1007,"Newport Corner","Newport Corner","NS",44.965965,-63.977021
1008,"Scotch Village","Scotch Village","NS",45.056929,-64.000853
1009,"Centre Burlington","Centre Burlington","NS",45.0667,-64.099999
1010,"Ellershouse","Ellershouse","NS",44.944737,-64.006666
1011,"Lakelands","Lakelands","NS",44.922977,-63.890929
1012,"Windsor Forks","Windsor Forks","NS",44.941046,-64.187801
1013,"Smiths Corner","Smiths Corner","NS",44.847149,-64.223631
1014,"Canaan","Canaan","NS",44.676378,-64.243399
1015,"Chester Grant","Chester Grant","NS",44.612539,-64.322527
1016,"Windsor Road","Windsor Road","NS",44.609551,-64.271949
1017,"Mosherville","Mosherville","NS",45.072633,-63.954356
1018,"Stanley","Stanley","NS",45.088338,-63.923461
1019,"Bramber","Bramber","NS",45.181191,-64.148869
1020,"Cheverie","Cheverie","NS",45.162212,-64.161123
1021,"Cambridge","Cambridge","NS",45.201297,-64.105179
1022,"Pembroke","Pembroke","NS",45.218646,-64.06525
1023,"East Walton","East Walton","NS",45.256042,-63.942052
1024,"Minasville","Minasville","NS",45.283299,-63.8167
1025,"Gormanville","Gormanville","NS",45.255285,-63.752823
1026,"East Noel","East Noel","NS",45.303996,-63.697818
1027,"Five Mile River","Five Mile River","NS",45.221844,-63.607179
1028,"Northfield","Northfield","NS",45.25,-63.683298
1029,"Upper Kennetcook","Upper Kennetcook","NS",45.200002,-63.650003
1030,"Noel Road","Noel Road","NS",45.204868,-63.738065
1031,"North Noel Road","North Noel Road","NS",45.225072,-63.743667
1032,"Lower Selma","Lower Selma","NS",45.313295,-63.604933
1033,"Maitland","Maitland","NS",45.317402,-63.495073
1034,"Noel Shore","Noel Shore","NS",45.312566,-63.6331
1035,"Selma","Selma","NS",45.321007,-63.539874
1036,"Stirling Brook","Stirling Brook","NS",45.312334,-63.561996
1037,"Latties Brook","Latties Brook","NS",45.236831,-63.570567
1038,"Gore","Gore","NS",45.121848,-63.715185
1039,"Upper Rawdon","Upper Rawdon","NS",45.067147,-63.712562
1040,"Upper Nine Mile River","Upper Nine Mile River","NS",45.079968,-63.628864
1041,"Barr Settlement","Barr Settlement","NS",45.136252,-63.619437
1042,"Centre Rawdon","Centre Rawdon","NS",45.048891,-63.843399
1043,"Rawdon Gold Mines","Rawdon Gold Mines","NS",45.054715,-63.763887
1044,"West Gore","West Gore","NS",45.093612,-63.77943
1045,"Clarksville","Clarksville","NS",45.099998,-63.8333
1046,"Ashdale","Ashdale","NS",45.011826,-63.92594
1047,"Upper Sackville","Upper Sackville","NS",44.799559,-63.727752
1048,"Milford Station","Milford Station","NS",45.049998,-63.433299
1049,"Admiral Rock","Admiral Rock","NS",45.168834,-63.407425
1050,"Brookfield","Brookfield","NS",45.256662,-63.279071
1052,"Truro","Truro","NS",45.363377,-63.276292
1053,"North River","North River","NS",45.425188,-63.254637
1054,"Truro Heights","Truro Heights","NS",45.355279,-63.317099
1055,"Masstown","Masstown","NS",45.385479,-63.478564
1056,"Central Onslow","Central Onslow","NS",45.375887,-63.367934
1057,"Belmont","Belmont","NS",45.425766,-63.386393
1058,"Bass River","Bass River","NS",45.414537,-63.782366
1059,"Five Houses","Five Houses","NS",45.397185,-63.735438
1060,"Portapique","Portapique","NS",45.402415,-63.701592
1061,"Alton","Alton","NS",45.191073,-63.30452
1062,"Old Barns","Old Barns","NS",45.345336,-63.403587
1063,"Beaver Brook","Beaver Brook","NS",45.317283,-63.418222
1064,"Folly Lake","Folly Lake","NS",45.549999,-63.549999
1065,"Earltown","Earltown","NS",45.576269,-63.137014
1066,"Kemptown","Kemptown","NS",45.469676,-63.073385
1067,"Salt Springs","Salt Springs","NS",45.536988,-62.895714
1068,"East Mountain","East Mountain","NS",45.421013,-63.180641
1069,"Lower Five Islands","Lower Five Islands","NS",45.412705,-64.095866
1070,"Five Islands","Five Islands","NS",45.411273,-64.039431
1071,"Lower Economy","Lower Economy","NS",45.401599,-63.987573
1072,"Greenhill","Greenhill","NS",45.386818,-64.259303
1073,"Green Oaks","Green Oaks","NS",45.251344,-63.439979
1074,"South Maitland","South Maitland","NS",45.252403,-63.470625
1075,"Upper Stewiacke","Upper Stewiacke","NS",45.223444,-62.992822
1076,"Cross Roads","Cross Roads","NS",45.234823,-62.943041
1077,"Springside","Springside","NS",45.281017,-62.890089
1078,"Middle Stewiacke","Middle Stewiacke","NS",45.223753,-63.137462
1079,"South Branch","South Branch","NS",45.168387,-63.086481
1080,"Valley","Valley","NS",45.381582,-63.194786
1081,"Murray Siding","Murray Siding","NS",45.365561,-63.206405
1082,"Wentworth","Wentworth","NS",45.650001,-63.55
1083,"Collingwood Corner","Collingwood Corner","NS",45.605284,-63.93707
1084,"Athol Road","Athol Road","NS",45.63505,-64.076854
1085,"Wentworth Valley","Wentworth Valley","NS",45.617459,-63.558203
1086,"Westchester Station","Westchester Station","NS",45.620635,-63.65875
1087,"Diligent River","Diligent River","NS",45.4117,-64.459257
1088,"Fox River","Fox River","NS",45.41057,-64.530203
1089,"Port Greville","Port Greville","NS",45.408602,-64.54419
1090,"Spencers Island","Spencers Island","NS",45.356961,-64.712602
1091,"East Advocate","East Advocate","NS",45.330392,-64.75992
1092,"West Advocate","West Advocate","NS",45.349999,-64.816702
1093,"New Salem","New Salem","NS",45.422111,-64.790815
1094,"Apple River","Apple River","NS",45.461004,-64.784915
1095,"Sand River","Sand River","NS",45.538252,-64.678378
1096,"Shulie","Shulie","NS",45.599999,-64.566703
1097,"Joggins","Joggins","NS",45.693551,-64.442291
1098,"River Hebert East","River Hebert East","NS",45.700797,-64.3596
1099,"Minudie","Minudie","NS",45.774102,-64.352064
1100,"Athol","Athol","NS",45.672291,-64.217106
1101,"Chignecto","Chignecto","NS",45.734557,-64.214254
1102,"Maccan","Maccan","NS",45.726984,-64.250836
1103,"Southampton","Southampton","NS",45.590153,-64.250557
1104,"Halfway River","Halfway River","NS",45.520076,-64.346542
1105,"Harrison Settlement","Harrison Settlement","NS",45.518404,-64.393364
1106,"Mapleton","Mapleton","NS",45.586396,-64.145783
1107,"Fenwick","Fenwick","NS",45.762532,-64.18643
1108,"Nappan","Nappan","NS",45.767028,-64.237809
1109,"Brookdale","Brookdale","NS",45.80469,-64.163172
1110,"East Amherst","East Amherst","NS",45.849998,-64.183296
1111,"Jacksons Point","Jacksons Point","NS",45.99769,-64.037685
1112,"Seagrove","Seagrove","NS",45.995496,-63.984856
1113,"Tidnish Cross Roads","Tidnish Cross Roads","NS",45.98903,-64.008676
1114,"Amherst Shore","Amherst Shore","NS",45.974807,-63.901156
1115,"Lorneville","Lorneville","NS",45.987377,-63.940286
1116,"East Linden","East Linden","NS",45.904381,-63.818484
1117,"Heather Beach","Heather Beach","NS",45.874259,-63.758955
1118,"Truemanville","Truemanville","NS",45.856106,-64.073988
1119,"Amherst Head","Amherst Head","NS",45.889191,-63.989671
1120,"Port Howe","Port Howe","NS",45.855451,-63.749611
1121,"Port Philip","Port Philip","NS",45.845693,-63.729833
1122,"Upper Gulf Shore","Upper Gulf Shore","NS",45.877216,-63.616538
1123,"South Pugwash","South Pugwash","NS",45.8333,-63.6333
1124,"Lower Gulf Shore","Lower Gulf Shore","NS",45.87369,-63.555532
1125,"Wallace Bridge","Wallace Bridge","NS",45.812677,-63.514573
1126,"North Wallace","North Wallace","NS",45.832611,-63.483833
1127,"Middleboro","Middleboro","NS",45.763747,-63.568335
1128,"Malagash","Malagash","NS",45.772567,-63.376425
1129,"Malagash Mine","Malagash Mine","NS",45.792341,-63.325342
1130,"South Shore","South Shore","NS",45.76841,-63.323762
1131,"Bayhead","Bayhead","NS",45.743716,-63.373522
1132,"French River","French River","NS",45.715285,-63.333004
1133,"Brule Shore","Brule Shore","NS",45.742246,-63.238567
1134,"Brule Point","Brule Point","NS",45.75775,-63.208529
1135,"Brule","Brule","NS",45.746876,-63.157476
1136,"Brule Corner","Brule Corner","NS",45.740625,-63.1773
1137,"The Falls","The Falls","NS",45.64033,-63.222278
1138,"Balfron","Balfron","NS",45.669728,-63.232687
1139,"West New Annan","West New Annan","NS",45.639201,-63.362134
1140,"Oliver","Oliver","NS",45.653976,-63.315435
1141,"Marshville","Marshville","NS",45.754075,-63.115805
1142,"Welsford","Welsford","NS",45.7289,-63.056321
1143,"Melville","Melville","NS",45.788377,-63.029214
1144,"Seafoam","Seafoam","NS",45.784356,-62.972492
1145,"Toney River","Toney River","NS",45.770926,-62.89194
1146,"MacKays Corner","MacKays Corner","NS",45.762795,-62.823244
1147,"Caribou Island","Caribou Island","NS",45.756848,-62.739475
1148,"Waterside","Waterside","NS",45.755336,-62.776285
1150,"Pictou Landing","Pictou Landing","NS",45.668078,-62.686834
1151,"Chance Harbour","Chance Harbour","NS",45.666698,-62.5833
1152,"Hillside","Hillside","NS",45.630513,-62.641016
1153,"Priestville","Priestville","NS",45.571715,-62.624375
1154,"Abercrombie","Abercrombie","NS",45.629116,-62.684904
1155,"Alma","Alma","NS",45.579242,-62.76091
1156,"Durham","Durham","NS",45.618617,-62.810047
1157,"Lyons Brook","Lyons Brook","NS",45.67058,-62.77937
1158,"Scotsburn","Scotsburn","NS",45.651529,-62.853933
1159,"Haliburton","Haliburton","NS",45.677889,-62.746141
1160,"Eureka","Eureka","NS",45.5,-62.683298
1161,"Riverton","Riverton","NS",45.526751,-62.674044
1162,"Sundridge","Sundridge","NS",45.71012,-62.849222
1163,"Three Brooks","Three Brooks","NS",45.719249,-62.786262
1164,"Meadowville","Meadowville","NS",45.7,-62.916698
1165,"West Branch","West Branch","NS",45.639556,-63.042298
1166,"Central West River","Central West River","NS",45.575321,-62.849555
1167,"Rocklin","Rocklin","NS",45.497634,-62.783184
1168,"Lorne","Lorne","NS",45.426089,-62.707677
1169,"Bridgeville","Bridgeville","NS",45.433739,-62.606633
1170,"Springville","Springville","NS",45.453497,-62.623264
1171,"Thorburn","Thorburn","NS",45.5667,-62.55
1172,"Sunny Brae","Sunny Brae","NS",45.40124,-62.503139
1173,"McLellans Brook","McLellans Brook","NS",45.543868,-62.610893
1174,"Sutherlands River","Sutherlands River","NS",45.588753,-62.501879
1175,"Lower Barneys River","Lower Barneys River","NS",45.667234,-62.347263
1176,"Lismore","Lismore","NS",45.7,-62.2667
1177,"Ponds","Ponds","NS",45.6833,-62.299998
1178,"Arisaig","Arisaig","NS",45.758213,-62.165712
1179,"Malignant Cove","Malignant Cove","NS",45.784937,-62.085755
1180,"Maryvale","Maryvale","NS",45.733805,-62.042965
1181,"Ballantynes Cove","Ballantynes Cove","NS",45.85958,-61.919533
1182,"Cape George","Cape George","NS",45.842737,-61.927006
1183,"Livingstone Cove","Livingstone Cove","NS",45.867341,-61.973277
1184,"Jimtown","Jimtown","NS",45.7075,-61.9004
1185,"Greenwold","Greenwold","NS",45.616787,-61.970533
1186,"St. Andrews","St. Andrews","NS",45.555446,-61.888318
1187,"Purlbrook","Purlbrook","NS",45.566699,-62.033299
1188,"West River","West River","NS",45.583301,-62.033297
1189,"St. Joseph","St. Joseph","NS",45.539824,-62.078015
1190,"James River","James River","NS",45.571701,-62.132919
1191,"Kenzieville","Kenzieville","NS",45.580634,-62.305634
1192,"Pictou Island","Pictou Island","NS",45.804875,-62.55635
1193,"Avondale","Avondale","NS",45.633301,-62.299998
1194,"Eden Lake","Eden Lake","NS",45.40328,-62.28717
1195,"McPhersons Mills","McPhersons Mills","NS",45.533298,-62.516702
1196,"Blue Mountain","Blue Mountain","NS",45.4833,-62.433299
1197,"North Grant","North Grant","NS",45.666698,-62.033298
1198,"Lower South River","Lower South River","NS",45.599998,-61.916697
1199,"Monks Head","Monks Head","NS",45.648304,-61.838936
1200,"Pomquet","Pomquet","NS",45.630073,-61.848755
1202,"Bayfield","Bayfield","NS",45.631928,-61.744762
1203,"Heatherton","Heatherton","NS",45.587692,-61.791708
1204,"Big Tracadie","Big Tracadie","NS",45.6167,-61.633302
1205,"Monastery","Monastery","NS",45.612248,-61.615186
1206,"Tracadie","Tracadie","NS",45.623269,-61.669183
1207,"Frankville","Frankville","NS",45.655766,-61.52652
1208,"West Havre Boucher","West Havre Boucher","NS",45.661947,-61.553933
1209,"Mattie Settlement","Mattie Settlement","NS",45.593796,-61.552376
1210,"Cape Jack","Cape Jack","NS",45.682271,-61.565035
1211,"Lower West River","Lower West River","NS",45.61116,-62.012137
1212,"Salt Springs","Salt Springs","NS",45.590349,-62.001883
1213,"North Lochaber","North Lochaber","NS",45.447934,-62.009908
1214,"Upper South River","Upper South River","NS",45.466702,-61.933301
1215,"Port Wade","Port Wade","NS",44.683299,-65.716699
1216,"Inglisville","Inglisville","NS",44.858481,-65.1115
1217,"Tremont","Tremont","NS",44.951837,-64.932904
1218,"Aylesford East","Aylesford East","NS",45.030102,-64.811045
1219,"Saint John","Saint John","NB",45.2765,-66.078142
1220,"Moncton","Moncton","NB",46.090712,-64.791441
1221,"Fredericton","Fredericton","NB",45.955391,-66.645585
1222,"Edmundston","Edmundston","NB",47.363868,-68.335573
1223,"Riverview","Riverview","NB",46.058161,-64.811855
1224,"Dieppe","Dieppe","NB",46.097806,-64.749748
1225,"Quispamsis","Quispamsis","NB",45.448255,-65.94014
1226,"Bathurst","Bathurst","NB",47.613709,-65.649421
1227,"Rothesay","Rothesay","NB",45.390143,-65.99658
1228,"Oromocto","Oromocto","NB",45.845063,-66.488621
1229,"Marysville","Marysville","NB",45.977895,-66.587745
1230,"Campbellton","Campbellton","NB",47.998588,-66.668579
1231,"Chatham","Chatham","NB",47.029593,-65.463739
1232,"Newcastle","Newcastle","NB",47.000698,-65.570544
1233,"Grand Falls","Grand-Sault","NB",47.042603,-67.747064
1234,"Sackville","Sackville","NB",45.895001,-64.364769
1235,"Woodstock","Woodstock","NB",46.156683,-67.582063
1236,"Shediac","Shediac","NB",46.219449,-64.538591
1237,"St. Stephen","St. Stephen","NB",45.196433,-67.279876
1238,"Caraquet","Caraquet","NB",47.787082,-64.955517
1239,"Beresford","Beresford","NB",47.708384,-65.703269
1240,"New Maryland","New Maryland","NB",45.896943,-66.682341
1241,"Sussex","Sussex","NB",45.723598,-65.516412
1242,"Hampton","Hampton","NB",45.524494,-65.819727
1243,"Dalhousie","Dalhousie","NB",48.062699,-66.371523
1244,"Shippagan","Shippagan","NB",47.740638,-64.712456
1245,"Bouctouche","Bouctouche","NB",46.473331,-64.722054
1246,"Saint-Quentin","Saint-Quentin","NB",47.508626,-67.39027
1247,"Cap-Pele","Cap-Pele","NB",46.213282,-64.273758
1248,"Petit Rocher","Petit Rocher","NB",47.784414,-65.718358
1249,"Salisbury","Salisbury","NB",46.027239,-65.042035
1250,"Perth-Andover","Perth-Andover","NB",46.746055,-67.701773
1251,"Saint Andrews","Saint Andrews","NB",45.07645,-67.050572
1252,"Balmoral","Balmoral","NB",47.973235,-66.447056
1253,"Neguac","Neguac","NB",47.244838,-65.084946
1255,"Bas-Caraquet","Bas-Caraquet","NB",47.798025,-64.829233
1256,"Lamèque","Lamèque","NB",47.795666,-64.644135
1257,"McAdam","McAdam","NB",45.595429,-67.319723
1258,"St. George","St. George","NB",45.130084,-66.824817
1259,"Saint-Antoine","Saint-Antoine","NB",46.364209,-64.753089
1260,"Charlo","Charlo","NB",47.990967,-66.306562
1261,"Petitcodiac","Petitcodiac","NB",45.932549,-65.170442
1262,"Chipman","Chipman","NB",46.175356,-65.874857
1263,"St. Leonard","St. Leonard","NB",47.164176,-67.924847
1264,"Atholville","Atholville","NB",47.989758,-66.715414
1265,"Norton","Norton","NB",45.632158,-65.70206
1266,"Richibucto","Richibucto","NB",46.682455,-64.867715
1267,"Eel River Crossing","Eel River Crossing","NB",48.015879,-66.423029
1268,"Maliseet","Maliseet","NB",46.765552,-67.70641
1269,"Hillsborough","Hillsborough","NB",45.923493,-64.647829
1270,"Bertrand","Bertrand","NB",47.754235,-65.072302
1271,"Rogersville","Rogersville","NB",46.735199,-65.42791
1272,"Plaster Rock","Plaster Rock","NB",46.913166,-67.397078
1273,"Kedgwick","Kedgwick","NB",47.644874,-67.342327
1274,"Sainte-Anne-de-Madawaska","Sainte-Anne-de-Madawaska","NB",47.249439,-68.023091
1275,"Sainte-Anne-de-Kent","Sainte-Anne-de-Kent","NB",46.553633,-64.77561
1276,"Sainte-Marie-Saint-Raphaël","Sainte-Marie-Saint-Raphaël","NB",47.79789,-64.56545
1278,"Blacks Harbour","Blacks Harbour","NB",45.060845,-66.794723
1279,"Nackawic","Nackawic","NB",45.996175,-67.240881
1280,"Pointe-Verte","Pointe-Verte","NB",47.855805,-65.766693
1281,"Blackville","Blackville","NB",46.732104,-65.829697
1282,"Dorchester","Dorchester","NB",45.900017,-64.516198
1283,"Saint-Isidore","Saint-Isidore","NB",47.555934,-65.040854
1284,"Clair","Clair","NB",47.253679,-68.606234
1285,"Rivière-Verte","Rivière-Verte","NB",47.320356,-68.145423
1286,"Grande-Anse","Grande-Anse","NB",47.812771,-65.177914
1287,"Rexton","Rexton","NB",46.640146,-64.864263
1288,"Saint-Léolin","Saint-Léolin","NB",47.770017,-65.166835
1289,"Saint-Basile","Saint-Basile","NB",47.355399,-68.223284
1290,"Florenceville","Florenceville","NB",46.444931,-67.614129
1291,"Bristol","Bristol","NB",46.470632,-67.576157
1292,"North Head","North Head","NB",44.767975,-66.766766
1293,"Fredericton Junction","Fredericton Junction","NB",45.657986,-66.606666
1294,"Gagetown","Gagetown","NB",45.781005,-66.149985
1295,"Paquetville","Paquetville","NB",47.668448,-65.106797
1296,"Cambridge-Narrows","Cambridge-Narrows","NB",45.830709,-65.955759
1297,"Tracy","Tracy","NB",45.677608,-66.683689
1298,"Baker Brook","Baker Brook","NB",47.301916,-68.508584
1299,"Bath","Bath","NB",46.512234,-67.597132
1300,"Saint-François de Madawaska","Saint-François de Madawaska","NB",47.244859,-68.69781
1301,"Centreville","Centreville","NB",46.431451,-67.711511
1302,"Hartland","Hartland","NB",46.30084,-67.523439
1303,"Drummond","Drummond","NB",47.03499,-67.683308
1304,"Doaktown","Doaktown","NB",46.552685,-66.126169
1305,"Nigadoo","Nigadoo","NB",47.740099,-65.714456
1306,"Saint-Louis de Kent","Saint-Louis de Kent","NB",46.737518,-64.972878
1307,"St. Martins","St. Martins","NB",45.348448,-65.555201
1308,"Harvey","Harvey","NB",45.729241,-67.004238
1309,"Millville","Millville","NB",46.127372,-67.192882
1310,"Alma","Alma","NB",45.606661,-64.940452
1311,"Elgin","Elgin","NB",45.795764,-65.11449
1312,"Meductic","Meductic","NB",45.99523,-67.487229
1313,"Havelock","Havelock","NB",45.995438,-65.313516
1314,"Aroostook","Aroostook","NB",46.805694,-67.72272
1315,"Napadogan","Napadogan","NB",46.410546,-66.931276
1316,"Jacksonville","Jacksonville","NB",46.189497,-67.613274
1317,"Riverside-Albert","Riverside-Albert","NB",45.748809,-64.731768
1318,"Canterbury","Canterbury","NB",45.892287,-67.460912
1319,"Lakeville","Lakeville","NB",46.337364,-67.685977
1320,"Cumberland Bay","Cumberland Bay","NB",46.040215,-65.865686
1321,"Keswick Ridge","Keswick Ridge","NB",45.997597,-66.888709
1322,"Geary","Geary","NB",45.758101,-66.475757
1323,"Glassville","Glassville","NB",46.481221,-67.423659
1324,"Nashwaak Bridge","Nashwaak Bridge","NB",46.239442,-66.607571
1325,"Jemseg","Jemseg","NB",45.831464,-66.113697
1326,"Browns Flat","Browns Flat","NB",45.468251,-66.133739
1327,"Mill Cove","Mill Cove","NB",45.878092,-66.00466
1328,"Harcourt","Harcourt","NB",46.470712,-65.244199
1329,"Debec","Debec","NB",46.073168,-67.689384
1330,"Boiestown","Boiestown","NB",46.455466,-66.41499
1331,"Port Elgin","Port Elgin","NB",46.050003,-64.086286
1332,"Taymouth","Taymouth","NB",46.183127,-66.607613
1333,"Juniper","Juniper","NB",46.551685,-67.223921
1334,"Stanley","Stanley","NB",46.284905,-66.733932
1335,"Lawrence Station","Lawrence Station","NB",45.42467,-67.174645
1336,"Moores Mills","Moores Mills","NB",45.292372,-67.2788
1337,"Cape Tormentine","Cape Tormentine","NB",46.126101,-63.794962
1338,"Sunny Corner","Sunny Corner","NB",46.948463,-65.811694
1339,"Acadieville","Acadieville","NB",46.730811,-65.264985
1340,"Pointe-Sapin","Pointe-Sapin","NB",46.96677,-64.832653
1341,"Escuminac","Escuminac","NB",47.0757,-64.912163
1342,"Lavillette","Lavillette","NB",47.262717,-65.325635
1343,"Arthurette","Arthurette","NB",46.790624,-67.487209
1344,"Odell","Odell","NB",46.817076,-67.429644
1345,"Saint-Sauveur","Saint-Sauveur","NB",47.52564,-65.287623
1346,"Upsalquitch","Upsalquitch","NB",47.813926,-66.879284
1347,"Saint-Paul","Saint-Paul","NB",46.328196,-65.016383
1348,"Bass River","Bass River","NB",46.544549,-65.1124
1349,"Cocagne","Cocagne","NB",46.32994,-64.612944
1350,"Saint-Jean-Baptiste-de-Restigouche","Saint-Jean-Baptiste-de-Restigouche","NB",47.765578,-67.212846
1351,"St. Margarets","St. Margarets","NB",46.906145,-65.196614
1352,"Saint-Martin-de-Restigouche","Saint-Martin-de-Restigouche","NB",47.571056,-67.334974
1353,"Riley Brook","Riley Brook","NB",47.174493,-67.210789
1354,"Oxbow","Oxbow","NB",47.014745,-67.295447
1355,"Fosterville","Fosterville","NB",45.799819,-67.764876
1356,"New Bandon","New Bandon","NB",46.496936,-66.277955
1357,"Sillikers","Sillikers","NB",46.942648,-65.874793
1358,"Renous","Renous","NB",46.815462,-65.797197
1359,"Saint-Ignace","Saint-Ignace","NB",46.69786,-65.079593
1360,"Notre-Dame-des-Érables","Notre-Dame-des-Érables","NB",47.637847,-65.242836
1361,"Pont-Landry","Pont-Landry","NB",47.575141,-64.955485
1362,"Scoudouc","Scoudouc","NB",46.163156,-64.562682
1363,"Tidnish Bridge","Tidnish Bridge","NB",45.978762,-64.044058
1364,"Baie Verte","Baie Verte","NB",46.018392,-64.100716
1365,"Point de Bute","Point de Bute","NB",45.899293,-64.242686
1366,"Jolicure","Jolicure","NB",45.944171,-64.215748
1367,"Baie Verte Road","Baie Verte Road","NB",45.990994,-64.142952
1368,"Bayfield","Bayfield","NB",46.136632,-63.815094
1369,"Murray Corner","Murray Corner","NB",46.1714,-63.9631
1370,"Bas-Cap-Pelé","Bas-Cap-Pelé","NB",46.233734,-64.268693
1371,"Petit-Cap","Petit-Cap","NB",46.1894,-64.164607
1372,"Trois-Ruisseaux","Trois-Ruisseaux","NB",46.208651,-64.208365
1373,"LeBlanc","LeBlanc","NB",46.17328,-64.273524
1374,"Shemogue","Shemogue","NB",46.156813,-64.180758
1375,"Dupuis Corner","Dupuis Corner","NB",46.2219,-64.3512
1376,"Robichaud","Robichaud","NB",46.220104,-64.381396
1377,"Barachois","Barachois","NB",46.228638,-64.448025
1378,"Pointe-du-Chêne","Pointe-du-Chêne","NB",46.237556,-64.517354
1379,"Haute-Aboujagane","Haute-Aboujagane","NB",46.148057,-64.40045
1380,"Middle Sackville","Middle Sackville","NB",45.920969,-64.364178
1381,"West Sackville","West Sackville","NB",45.873807,-64.383389
1382,"Wood Point","Wood Point","NB",45.839794,-64.379124
1383,"Rockport","Rockport","NB",45.7333,-64.499999
1384,"Bayside","Bayside","NB",46.0667,-64.0167
1385,"Cape Spear","Cape Spear","NB",46.086365,-63.809358
1386,"Cookville","Cookville","NB",46.04074,-64.333323
1387,"Midgic","Midgic","NB",45.976233,-64.292498
1388,"Upper Sackville","Upper Sackville","NB",45.944877,-64.34462
1389,"Memramcook","Memramcook","NB",46.005274,-64.551908
1390,"College Bridge","College Bridge","NB",45.979748,-64.545937
1391,"Memramcook East","Memramcook East","NB",46.013213,-64.518557
1392,"Saint-Joseph","Saint-Joseph","NB",45.97621,-64.564175
1393,"La Hêtrière","La Hêtrière","NB",46.011092,-64.59918
1394,"Gautreau Village","Gautreau Village","NB",45.967959,-64.645949
1395,"Weldon","Weldon","NB",45.950319,-64.675791
1396,"Lower Coverdale","Lower Coverdale","NB",46.031926,-64.721109
1397,"Lakeburn","Lakeburn","NB",46.10279,-64.678733
1398,"Saint-Anselme","Saint-Anselme","NB",46.063399,-64.712266
1399,"Hildegarde","Hildegarde","NB",46.118059,-64.850222
1400,"Harrisville","Harrisville","NB",46.117744,-64.719609
1401,"Lakeville","Lakeville","NB",46.148859,-64.675428
1402,"Five Points","Five Points","NB",46.021967,-65.01713
1403,"Boundary Creek","Boundary Creek","NB",46.054825,-64.982383
1404,"Irishtown","Irishtown","NB",46.188715,-64.7942
1405,"Dufourville","Dufourville","NB",46.278872,-64.759221
1406,"Chapman Corner","Chapman Corner","NB",46.220575,-64.5664
1407,"Shediac Cape","Shediac Cape","NB",46.242353,-64.568977
1408,"Shediac Bridge","Shediac Bridge","NB",46.273504,-64.585458
1409,"Notre-Dame","Notre-Dame","NB",46.313962,-64.726522
1410,"Bourgeois","Bourgeois","NB",46.311917,-64.523598
1411,"Cap-de-Cocagne","Cap-de-Cocagne","NB",46.351759,-64.555979
1412,"Cap-des-Caissie","Cap-des-Caissie","NB",46.340631,-64.537723
1413,"Grande-Digue","Grande-Digue","NB",46.296117,-64.570399
1414,"Saint-Philippe","Saint-Philippe","NB",46.215111,-64.692504
1415,"Cormierville","Cormierville","NB",46.404194,-64.623855
1416,"Côte-d'Or","Côte-d'Or","NB",46.347623,-64.615285
1417,"Saint-Thomas-de-Kent","Saint-Thomas-de-Kent","NB",46.443213,-64.644413
1418,"Buctouche-Sud","Buctouche-Sud","NB",46.463896,-64.711965
1419,"Sainte-Marie-de-Kent","Sainte-Marie-de-Kent","NB",46.415997,-64.82662
1420,"McKees Mills","McKees Mills","NB",46.418185,-64.725607
1421,"Saint-Édouard-de-Kent","Saint-Édouard-de-Kent","NB",46.54335,-64.71186
1422,"Saint-Pierre-de-Kent","Saint-Pierre-de-Kent","NB",46.513184,-64.756808
1423,"Côte-Sainte-Anne","Côte-Sainte-Anne","NB",46.581315,-64.727625
1424,"Maria-de-Kent","Maria-de-Kent","NB",46.447559,-64.776435
1425,"South Branch","South Branch","NB",46.536293,-64.909743
1426,"West Branch","West Branch","NB",46.536391,-64.958766
1427,"Normandie","Normandie","NB",46.482003,-64.984259
1428,"Clairville","Clairville","NB",46.3833,-65.099999
1429,"Légerville","Légerville","NB",46.309488,-65.000379
1430,"Adamsville","Adamsville","NB",46.396269,-65.182345
1431,"Cap-Lumière","Cap-Lumière","NB",46.658844,-64.719038
1432,"Richibucto-Village","Richibucto-Village","NB",46.656113,-64.759532
1434,"Bedec","Bedec","NB",46.683301,-64.783304
1435,"Jardineville","Jardineville","NB",46.65466,-64.853796
1436,"Grande-Aldouane","Grande-Aldouane","NB",46.711214,-64.931569
1437,"Petite-Aldouane","Petite-Aldouane","NB",46.708319,-64.891697
1438,"Saint-Charles","Saint-Charles","NB",46.664205,-64.977961
1439,"Kouchibouguac","Kouchibouguac","NB",46.792137,-65.053363
1440,"Baie-Sainte-Anne","Baie-Sainte-Anne","NB",47.051973,-64.953896
1441,"Manuels","Manuels","NB",47.035509,-64.986128
1442,"Hardwicke","Hardwicke","NB",47.075109,-65.017298
1443,"Bay du Vin Beach","Bay du Vin Beach","NB",47.054765,-65.134527
1444,"Point Gardiner","Point Gardiner","NB",47.070745,-65.101228
1445,"Miramichi","Miramichi","NB",47.037198,-65.178684
1446,"Black River","Black River","NB",46.967938,-65.325513
1447,"Black River Bridge","Black River Bridge","NB",47.011519,-65.255301
1448,"Little Branch","Little Branch","NB",47.004325,-65.215674
1449,"Douglastown","Douglastown","NB",47.027925,-65.501571
1450,"Nelson-Miramichi","Nelson-Miramichi","NB",46.979486,-65.548131
1451,"Loggieville","Loggieville","NB",47.070351,-65.381401
1452,"Forest Corner","Forest Corner","NB",47.058067,-65.419172
1453,"Moorefield","Moorefield","NB",47.045475,-65.477788
1454,"Lower Newcastle","Lower Newcastle","NB",47.082239,-65.393602
1455,"Oak Point","Oak Point","NB",47.123691,-65.269668
1456,"The Willows","The Willows","NB",47.116571,-65.281019
1457,"Upper Napan","Upper Napan","NB",47.002143,-65.425516
1458,"Chatham Head","Chatham Head","NB",46.998984,-65.546198
1460,"Strathadam","Strathadam","NB",46.966702,-65.666702
1461,"Whitney","Whitney","NB",46.966702,-65.733297
1463,"Lyttleton","Lyttleton","NB",46.937771,-65.91241
1464,"Matthews","Matthews","NB",46.927146,-65.921122
1465,"Quarryville","Quarryville","NB",46.834625,-65.780515
1466,"Coughlan","Coughlan","NB",46.77053,-65.758181
1467,"Derby","Derby","NB",46.888601,-65.655015
1468,"Upper Blackville","Upper Blackville","NB",46.633133,-65.872872
1469,"Shinnickburn","Shinnickburn","NB",46.55,-65.833297
1470,"Priceville","Priceville","NB",46.513589,-66.285487
1471,"Ludlow","Ludlow","NB",46.486979,-66.351047
1472,"Carrolls Crossing","Carrolls Crossing","NB",46.519943,-66.240129
1473,"Russelltown","Russelltown","NB",46.548946,-66.166771
1474,"Amostown","Amostown","NB",46.533521,-66.207947
1475,"O'Donnells","O'Donnells","NB",46.516701,-66.266701
1476,"Astle","Astle","NB",46.416698,-66.466697
1477,"Parker Ridge","Parker Ridge","NB",46.45377,-66.524855
1478,"Howard","Howard","NB",46.666698,-65.783302
1479,"Keenan Siding","Keenan Siding","NB",46.700001,-65.800005
1480,"The Lots","The Lots","NB",46.6833,-65.85
1481,"Weaver Siding","Weaver Siding","NB",46.616699,-65.966698
1482,"Blissfield","Blissfield","NB",46.585945,-66.056739
1483,"Grand Lake Road","Grand Lake Road","NB",46.519609,-66.094223
1484,"Storeytown","Storeytown","NB",46.5667,-66.15
1485,"Bloomfield Ridge","Bloomfield Ridge","NB",46.483299,-66.483301
1486,"Holtville","Holtville","NB",46.5167,-66.483299
1487,"McGivney","McGivney","NB",46.363299,-66.563589
1488,"Cross Creek","Cross Creek","NB",46.309865,-66.717547
1489,"Williamsburg","Williamsburg","NB",46.331685,-66.770291
1490,"Trout Brook","Trout Brook","NB",47.114874,-65.783509
1491,"Wayerton","Wayerton","NB",47.133301,-65.833296
1492,"Big Hole","Big Hole","NB",47.039842,-65.828521
1493,"Exmoor","Exmoor","NB",46.983298,-65.833296
1494,"Beaver Brook Station","Beaver Brook Station","NB",47.133301,-65.599999
1495,"Nowlanville","Nowlanville","NB",46.943444,-65.516701
1496,"Barryville","Barryville","NB",47.150001,-65.249999
1497,"New Jersey","New Jersey","NB",47.202964,-65.19765
1498,"Lagacéville","Lagacéville","NB",47.229897,-65.178004
1499,"Saint-Wilfred","Saint-Wilfred","NB",47.257969,-65.224425
1500,"Lower Neguac","Lower Neguac","NB",47.267635,-65.058837
1501,"Fairisle","Fairisle","NB",47.281867,-65.123144
1502,"Covedell","Covedell","NB",47.315322,-65.015206
1503,"Tabusintac","Tabusintac","NB",47.327109,-65.011231
1504,"Brantville","Brantville","NB",47.372595,-64.968198
1505,"Pontgravé","Pontgravé","NB",47.414671,-64.956386
1506,"Rivière-du-Portage","Rivière-du-Portage","NB",47.421026,-64.934899
1507,"Pont-Lafrance","Pont-Lafrance","NB",47.442252,-64.974535
1508,"Leech","Leech","NB",47.453367,-64.980765
1509,"Saint-Pons","Saint-Pons","NB",47.474714,-64.961494
1510,"Upper Sheila","Upper Sheila","NB",47.463419,-64.948281
1511,"Benoit","Benoit","NB",47.486416,-64.961296
1512,"Saumarez","Saumarez","NB",47.499901,-64.94015
1513,"Tracadie","Tracadie","NB",47.51398,-64.914579
1514,"Sheila","Sheila","NB",47.483299,-64.916705
1515,"Losier Settlement","Losier Settlement","NB",47.563291,-64.933736
1516,"Boishébert","Boishébert","NB",47.567648,-64.992746
1517,"Duguayville","Duguayville","NB",47.601825,-65.06982
1518,"Haut-Sainte-Rose","Haut-Sainte-Rose","NB",47.622914,-64.990882
1519,"Six Roads","Six Roads","NB",47.622315,-64.871867
1520,"Maltampec","Maltampec","NB",47.674933,-64.981954
1521,"Landry","Landry","NB",47.667128,-64.950491
1522,"Inkerman","Inkerman","NB",47.66849,-64.823757
1523,"Four Roads","Four Roads","NB",47.610496,-64.842037
1524,"South River","South River","NB",47.650001,-64.866699
1525,"Pokemouche","Pokemouche","NB",47.671969,-64.883798
1526,"Upper Pokemouche","Upper Pokemouche","NB",47.687478,-64.875723
1527,"Evangeline","Evangeline","NB",47.692537,-64.846857
1528,"Inkerman Ferry","Inkerman Ferry","NB",47.681418,-64.813729
1529,"Centre-Saint-Simon","Centre-Saint-Simon","NB",47.736226,-64.840524
1530,"Haut-Saint-Simon","Haut-Saint-Simon","NB",47.728085,-64.825579
1531,"Sainte-Rose-Gloucester","Sainte-Rose-Gloucester","NB",47.618373,-64.933582
1532,"Thériault","Thériault","NB",47.731031,-65.057158
1533,"Anse-Bleue","Anse-Bleue","NB",47.823823,-65.082627
1534,"Maisonnette","Maisonnette","NB",47.81673,-65.013158
1535,"Le Bouthillier","Le Bouthillier","NB",47.796565,-64.900679
1536,"Middle Caraquet","Middle Caraquet","NB",47.800607,-64.870275
1537,"Pokesudie","Pokesudie","NB",47.800657,-64.767655
1538,"Morais","Morais","NB",47.767729,-64.79825
1539,"Le Goulet","Le Goulet","NB",47.704351,-64.71119
1540,"Haut-Shippegan","Haut-Shippegan","NB",47.744662,-64.755047
1541,"Savoy Landing","Savoy Landing","NB",47.752077,-64.68608
1542,"Chiasson","Chiasson","NB",47.735548,-64.635923
1543,"Sainte-Marie-sur-Mer","Sainte-Marie-sur-Mer","NB",47.777315,-64.578339
1544,"Cap-Bateau","Cap-Bateau","NB",47.814545,-64.537704
1545,"Coteau Road","Coteau Road","NB",47.832234,-64.56259
1546,"Petite-Rivière-de-l'Ile","Petite-Rivière-de-l'Ile","NB",47.869289,-64.643928
1547,"Pointe-Canot","Pointe-Canot","NB",47.835162,-64.694734
1548,"Sainte-Cécile","Sainte-Cécile","NB",47.854388,-64.667381
1549,"Pigeon Hill","Pigeon Hill","NB",47.847615,-64.513054
1550,"Little Shippegan","Little Shippegan","NB",47.876967,-64.594661
1551,"Miscou Centre","Miscou Centre","NB",47.940479,-64.568005
1552,"Miscou Harbour","Miscou Harbour","NB",47.900003,-64.583299
1553,"Miscou Lighthouse","Miscou Lighthouse","NB",48.008926,-64.523515
1554,"Miscou Plains","Miscou Plains","NB",47.988853,-64.531209
1555,"Wilson Point","Wilson Point","NB",47.9333,-64.483301
1556,"Black Rock","Black Rock","NB",47.749999,-65.233298
1557,"New Bandon","New Bandon","NB",47.75756,-65.315422
1558,"Pokeshaw","Pokeshaw","NB",47.786842,-65.255465
1559,"Stonehaven","Stonehaven","NB",47.749029,-65.356564
1560,"Canobie","Canobie","NB",47.684976,-65.364206
1561,"Val-Doucet","Val-Doucet","NB",47.615311,-65.202797
1562,"Sainte-Anne-du-Bocage","Sainte-Anne-du-Bocage","NB",47.767959,-65.011835
1563,"Haut-Caraquet","Haut-Caraquet","NB",47.76399,-65.05027
1564,"Allardville East","Allardville East","NB",47.500008,-65.38881
1565,"Butte-D'Or","Butte-D'Or","NB",47.543527,-65.206175
1566,"Allardville","Allardville","NB",47.473175,-65.493206
1567,"Daulnay","Daulnay","NB",47.414705,-65.459001
1568,"Jeanne-Mance","Jeanne-Mance","NB",47.349374,-65.431466
1569,"Janeville","Janeville","NB",47.686526,-65.449114
1570,"Clifton","Clifton","NB",47.727107,-65.392265
1571,"Salmon Beach","Salmon Beach","NB",47.662253,-65.532671
1572,"Cains Point","Cains Point","NB",47.341249,-65.104657
1573,"Gaythorne","Gaythorne","NB",47.362737,-65.071685
1574,"Allainville","Allainville","NB",47.292639,-65.266201
1575,"Bartibog","Bartibog","NB",47.185686,-65.405814
1576,"St. Mary","St. Mary","NB",47.606703,-65.631627
1577,"Cross Roads","Cross Roads","NB",47.640515,-65.685652
1578,"Sainte-Anne","Sainte-Anne","NB",47.627971,-65.722478
1579,"Youghall","Youghall","NB",47.65956,-65.645871
1580,"Carron Point","Carron Point","NB",47.648219,-65.602042
1581,"North Tetagouche","North Tetagouche","NB",47.63533,-65.762122
1582,"Rough Waters","Rough Waters","NB",47.590441,-65.641427
1583,"Big River","Big River","NB",47.578665,-65.666747
1584,"Pabineau","Pabineau","NB",47.532625,-65.670555
1585,"Nepisiguit Junction","Nepisiguit Junction","NB",47.56136,-65.669396
1586,"South Tetagouche","South Tetagouche","NB",47.602023,-65.840216
1587,"Nicholas Denys","Nicholas Denys","NB",47.697344,-65.885237
1588,"Robertville","Robertville","NB",47.695401,-65.772709
1589,"Bathurst Mines","Bathurst Mines","NB",47.416699,-65.800004
1590,"Saint-Laurent","Saint-Laurent","NB",47.724479,-65.774685
1591,"Peters River","Peters River","NB",47.679918,-65.691966
1592,"Petit-Rocher-Sud","Petit-Rocher-Sud","NB",47.761191,-65.713617
1593,"LaPlante","LaPlante","NB",47.768904,-65.775811
1594,"Tremblay","Tremblay","NB",47.75,-65.750002
1595,"Devereaux","Devereaux","NB",47.825565,-65.738358
1596,"Madran","Madran","NB",47.817059,-65.772459
1597,"Petit-Rocher-Nord","Petit-Rocher-Nord","NB",47.804129,-65.73165
1598,"Belledune","Belledune","NB",47.883146,-65.813845
1599,"Belledune River","Belledune River","NB",47.906535,-65.882625
1600,"Culligan","Culligan","NB",47.912522,-65.931443
1601,"Armstrong Brook","Armstrong Brook","NB",47.915136,-65.966672
1602,"Durham Centre","Durham Centre","NB",47.918582,-66.03193
1603,"Jacquet River","Jacquet River","NB",47.914645,-66.007282
1604,"Nash Creek","Nash Creek","NB",47.920416,-66.084039
1605,"Lorne","Lorne","NB",47.87326,-66.127391
1606,"Sea Side","Sea Side","NB",47.951095,-66.131932
1607,"Doyleville","Doyleville","NB",47.90325,-66.100924
1608,"Benjamin River","Benjamin River","NB",47.961082,-66.171446
1609,"Upper Charlo","Upper Charlo","NB",48.002438,-66.348697
1610,"Mountain Brook","Mountain Brook","NB",47.983957,-66.360675
1612,"Darlington","Darlington","NB",48.049999,-66.383302
1613,"Selwood","Selwood","NB",47.982663,-66.404674
1614,"Dundee","Dundee","NB",48.002617,-66.484198
1615,"McNeish","McNeish","NB",48.057966,-66.414801
1616,"Dalhousie Junction","Dalhousie Junction","NB",48.037145,-66.499684
1617,"Point La Nim","Point La Nim","NB",48.053709,-66.456098
1618,"Maple Green","Maple Green","NB",48.026874,-66.527737
1619,"McLeods","McLeods","NB",48.014821,-66.564129
1620,"Saint-Maure","Saint-Maure","NB",47.947639,-66.468389
1621,"Blair Athol","Blair Athol","NB",47.938846,-66.571811
1622,"Val-d'Amour","Val-d'Amour","NB",47.953832,-66.681656
1623,"Tide Head","Tide Head","NB",47.983663,-66.771592
1624,"Glencoe","Glencoe","NB",47.954298,-66.803832
1625,"Saint-Arthur","Saint-Arthur","NB",47.88985,-66.756735
1626,"Val-Melanson","Val-Melanson","NB",47.908399,-66.784595
1627,"Glen Levit","Glen Levit","NB",47.961056,-66.850522
1628,"Dawsonville","Dawsonville","NB",47.932937,-66.892763
1629,"Flatlands","Flatlands","NB",47.990214,-66.870921
1630,"Robinsonville","Robinsonville","NB",47.869074,-66.950402
1631,"Menneval","Menneval","NB",47.803869,-67.180611
1632,"Whites Brook","Whites Brook","NB",47.683048,-67.271269
1633,"Rang-Double-Nord","Rang-Double-Nord","NB",47.650001,-67.383301
1634,"Thibault","Thibault","NB",47.612806,-67.347851
1635,"Rang-Douze-Nord","Rang-Douze-Nord","NB",47.55121,-67.391591
1636,"Five Fingers","Five Fingers","NB",47.512949,-67.358851
1637,"Hazen","Hazen","NB",47.493336,-67.426444
1638,"Kedgwick River","Kedgwick River","NB",47.659538,-67.476799
1639,"Rang-Douze-Sud","Rang-Douze-Sud","NB",47.48507,-67.392878
1640,"Connors","Connors","NB",47.209887,-68.826073
1641,"Pelletiers Mill","Pelletiers Mill","NB",47.233224,-68.760424
1642,"Val Oakes","Val Oakes","NB",47.22143,-68.78712
1643,"Les Rapides","Les Rapides","NB",47.266701,-68.6
1644,"Caron Brook","Caron Brook","NB",47.288142,-68.583858
1645,"Lac Baker","Lac Baker","NB",47.333427,-68.640652
1646,"Portage-du-Lac","Portage-du-Lac","NB",47.316701,-68.6
1647,"Boundary","Boundary","NB",47.371321,-68.723768
1648,"Verret","Verret","NB",47.349997,-68.3833
1649,"St. Hilaire","St. Hilaire","NB",47.289774,-68.40668
1650,"Riceville","Riceville","NB",47.346183,-68.458844
1651,"Val-Lambert","Val-Lambert","NB",47.3833,-68.533302
1652,"Edmundston-Est","Edmundston-Est","NB",47.376787,-68.323137
1653,"Iroquois","Iroquois","NB",47.368817,-68.276445
1654,"Saint-Jacques","Saint-Jacques","NB",47.433379,-68.388202
1655,"Ennemond","Ennemond","NB",47.394724,-68.443718
1656,"Patrieville","Patrieville","NB",47.483429,-68.412474
1657,"Moulin-Morneault","Moulin-Morneault","NB",47.457722,-68.358127
1658,"Saint-Joseph-de-Madawaska","Saint-Joseph-de-Madawaska","NB",47.45586,-68.315179
1659,"Rang-des-Bossé","Rang-des-Bossé","NB",47.47109,-68.323422
1660,"Jalbert","Jalbert","NB",47.402716,-68.238124
1661,"Davis Mill","Davis Mill","NB",47.347036,-68.139137
1662,"Prime","Prime","NB",47.28249,-68.0984
1663,"Siegas","Siegas","NB",47.216743,-67.981723
1664,"Siegas Lake Settlement","Siegas Lake Settlement","NB",47.311808,-67.914532
1665,"Sirois","Sirois","NB",47.283298,-68
1666,"Miller Line Cache","Miller Line Cache","NB",47.366234,-67.862837
1667,"Saint-Léonard-Parent","Saint-Léonard-Parent","NB",47.145826,-67.903552
1668,"Bellefleur","Bellefleur","NB",47.116699,-67.8833
1669,"Violette Settlement","Violette Settlement","NB",47.176846,-67.815594
1670,"Powers Creek","Powers Creek","NB",47.083302,-67.816703
1671,"St. André","St. André","NB",47.09884,-67.761291
1672,"Hennigar Corner","Hennigar Corner","NB",47.053354,-67.717929
1673,"Grand Falls Station","Grand Falls Station","NB",47.064262,-67.743141
1674,"Comeau Ridge","Comeau Ridge","NB",47.14993,-67.690459
1675,"Levesque Settlement","Levesque Settlement","NB",47.136238,-67.738453
1676,"Woodville","Woodville","NB",47.101929,-67.710083
1677,"Burgess Settlement","Burgess Settlement","NB",47.086629,-67.568582
1678,"New Denmark","New Denmark","NB",46.993357,-67.594072
1679,"Salmonhurst Corner","Salmonhurst Corner","NB",46.978081,-67.629335
1680,"Blue Bell","Blue Bell","NB",46.950001,-67.533303
1681,"Grand Falls Portage","Grand Falls Portage","NB",47.014154,-67.757753
1682,"Argosy","Argosy","NB",46.983808,-67.713454
1683,"Lower Portage","Lower Portage","NB",46.926262,-67.722706
1684,"Limestone","Limestone","NB",46.92909,-67.704703
1685,"North Tilley","North Tilley","NB",46.83811,-67.668749
1686,"Four Falls","Four Falls","NB",46.825987,-67.740704
1687,"Costigan","Costigan","NB",46.898665,-67.750891
1688,"Anfield","Anfield","NB",46.926977,-67.514309
1689,"Anderson Road","Anderson Road","NB",46.866699,-67.5
1690,"Hillside","Hillside","NB",46.762934,-67.551412
1691,"Quaker Brook","Quaker Brook","NB",46.759926,-67.630027
1692,"Licford","Licford","NB",46.783298,-67.5
1693,"Wapske","Wapske","NB",46.881585,-67.377902
1694,"Arbuckle","Arbuckle","NB",46.900002,-67.3833
1695,"Sisson Brook","Sisson Brook","NB",46.982525,-67.375745
1696,"Two Brooks","Two Brooks","NB",47.070952,-67.299294
1697,"Blue Mountain Bend","Blue Mountain Bend","NB",47.099999,-67.266701
1698,"Nictau","Nictau","NB",47.2333,-67.150002
1699,"Hillandale","Hillandale","NB",46.710048,-67.727313
1700,"Inman","Inman","NB",46.683945,-67.718746
1701,"Bairdsville","Bairdsville","NB",46.629758,-67.714104
1702,"Kilburn","Kilburn","NB",46.638053,-67.704263
1703,"Kincardine","Kincardine","NB",46.638993,-67.654499
1704,"Upper Kent","Upper Kent","NB",46.567643,-67.709227
1705,"Dover Hill","Dover Hill","NB",46.627061,-67.75308
1706,"Lower Kintore","Lower Kintore","NB",46.670949,-67.651675
1707,"Summerfield","Summerfield","NB",46.527723,-67.687411
1708,"Halls Corner","Halls Corner","NB",46.574458,-67.615935
1709,"Holmesville","Holmesville","NB",46.574491,-67.604273
1710,"Mineral","Mineral","NB",46.589388,-67.595175
1711,"Lower Greenfield","Lower Greenfield","NB",46.479847,-67.648147
1712,"Knoxford","Knoxford","NB",46.494078,-67.737218
1713,"Argyle","Argyle","NB",46.516701,-67.333299
1714,"Gordonsville","Gordonsville","NB",46.476806,-67.504563
1715,"Stickney","Stickney","NB",46.383301,-67.566703
1716,"Peel","Peel","NB",46.351035,-67.553256
1717,"Lansdowne","Lansdowne","NB",46.385181,-67.517703
1718,"Coldstream","Coldstream","NB",46.342847,-67.468167
1719,"Waterville","Waterville","NB",46.264243,-67.580758
1720,"Tracey Mills","Tracey Mills","NB",46.438988,-67.746242
1721,"Windsor","Windsor","NB",46.396145,-67.4087
1722,"Cloverdale","Cloverdale","NB",46.300342,-67.359091
1723,"Somerville","Somerville","NB",46.290838,-67.534571
1724,"Victoria Corner","Victoria Corner","NB",46.270683,-67.514053
1725,"McKenna","McKenna","NB",46.214287,-67.509161
1726,"Lower Brighton","Lower Brighton","NB",46.25,-67.500001
1728,"Grafton","Grafton","NB",46.163434,-67.564441
1729,"Richmond Corner","Richmond Corner","NB",46.145156,-67.706735
1730,"Belleville","Belleville","NB",46.200001,-67.699998
1731,"Benton","Benton","NB",45.990077,-67.605115
1732,"Eel River Lake","Eel River Lake","NB",45.833302,-67.650003
1733,"Temperance Vale","Temperance Vale","NB",46.061471,-67.246593
